[{"id": "113", "parent_id": null, "name": "Россия", "areas": [{"id": "1620", "parent_id": "113", "name": "Республика Марий Эл", "areas": [{"id": "4228", "parent_id": "1620", "name": "Виловатово", "areas": [], "utc_offset": "+03:00", "lat": 56.176148, "lng": 46.606034}, {"id": "1621", "parent_id": "1620", "name": "Волжск", "areas": [], "utc_offset": "+03:00", "lat": 55.866128, "lng": 48.356478}, {"id": "1622", "parent_id": "1620", "name": "Звенигово", "areas": [], "utc_offset": "+03:00", "lat": 55.97487, "lng": 48.022039}, {"id": "4229", "parent_id": "1620", "name": "Знаменский", "areas": [], "utc_offset": "+03:00", "lat": 56.644678, "lng": 47.983942}, {"id": "61", "parent_id": "1620", "name": "Йошкар-Ола", "areas": [], "utc_offset": "+03:00", "lat": 56.635033, "lng": 47.89974}, {"id": "4230", "parent_id": "1620", "name": "Кельмаксола", "areas": [], "utc_offset": "+03:00", "lat": 56.81703, "lng": 48.268367}, {"id": "4231", "parent_id": "1620", "name": "Килемары", "areas": [], "utc_offset": "+03:00", "lat": 56.779363, "lng": 46.863294}, {"id": "1623", "parent_id": "1620", "name": "Козьмодемьянск", "areas": [], "utc_offset": "+03:00", "lat": 56.332705, "lng": 46.547541}, {"id": "4232", "parent_id": "1620", "name": "Красногорский (Республика Марий Эл)", "areas": [], "utc_offset": "+03:00", "lat": 56.152851, "lng": 48.32567}, {"id": "4233", "parent_id": "1620", "name": "Краснооктябрьский", "areas": [], "utc_offset": "+03:00", "lat": 56.676256, "lng": 47.667582}, {"id": "7178", "parent_id": "1620", "name": "Красный Стекловар", "areas": [], "utc_offset": "+03:00", "lat": 56.222325, "lng": 48.791007}, {"id": "4234", "parent_id": "1620", "name": "Куженер", "areas": [], "utc_offset": "+03:00", "lat": 56.811197, "lng": 48.914471}, {"id": "7064", "parent_id": "1620", "name": "Кузнецово", "areas": [], "utc_offset": "+03:00", "lat": 56.692724, "lng": 48.039979}, {"id": "7080", "parent_id": "1620", "name": "Мариец", "areas": [], "utc_offset": "+03:00", "lat": 56.516616, "lng": 49.833555}, {"id": "4235", "parent_id": "1620", "name": "Мари-Турек", "areas": [], "utc_offset": "+03:00", "lat": 56.786468, "lng": 49.616891}, {"id": "4236", "parent_id": "1620", "name": "Медведево", "areas": [], "utc_offset": "+03:00", "lat": 56.633293, "lng": 47.8033}, {"id": "7199", "parent_id": "1620", "name": "Михайловка (Республика Марий Эл)", "areas": [], "utc_offset": "+03:00", "lat": 56.654016, "lng": 48.257874}, {"id": "3667", "parent_id": "1620", "name": "Морки", "areas": [], "utc_offset": "+03:00", "lat": 56.416667, "lng": 49.0}, {"id": "7045", "parent_id": "1620", "name": "Мочалище", "areas": [], "utc_offset": "+03:00", "lat": 56.333709, "lng": 48.356249}, {"id": "4237", "parent_id": "1620", "name": "Новый Торъял", "areas": [], "utc_offset": "+03:00", "lat": 57.003343, "lng": 48.739982}, {"id": "4238", "parent_id": "1620", "name": "Оршанка", "areas": [], "utc_offset": "+03:00", "lat": 56.916222, "lng": 47.893176}, {"id": "4239", "parent_id": "1620", "name": "Параньга", "areas": [], "utc_offset": "+03:00", "lat": 56.704171, "lng": 49.403172}, {"id": "7142", "parent_id": "1620", "name": "Пектубаево", "areas": [], "utc_offset": "+03:00", "lat": 57.033448, "lng": 48.385992}, {"id": "4240", "parent_id": "1620", "name": "Приволжский (Республика Марий Эл)", "areas": [], "utc_offset": "+03:00", "lat": 55.963728, "lng": 48.413507}, {"id": "7012", "parent_id": "1620", "name": "Семеновка (Республика Марий Эл)", "areas": [], "utc_offset": "+03:00", "lat": 56.653224, "lng": 47.977295}, {"id": "4241", "parent_id": "1620", "name": "Сернур", "areas": [], "utc_offset": "+03:00", "lat": 56.933911, "lng": 49.148527}, {"id": "7260", "parent_id": "1620", "name": "Силикатный", "areas": [], "utc_offset": "+03:00", "lat": 56.379441, "lng": 48.2027}, {"id": "4242", "parent_id": "1620", "name": "Советский (Республика Марий Эл)", "areas": [], "utc_offset": "+03:00", "lat": 56.759133, "lng": 48.472671}, {"id": "7123", "parent_id": "1620", "name": "Сотнур", "areas": [], "utc_offset": "+03:00", "lat": 56.140274, "lng": 48.77799}, {"id": "7113", "parent_id": "1620", "name": "Сурок", "areas": [], "utc_offset": "+03:00", "lat": 56.444752, "lng": 48.121169}, {"id": "7244", "parent_id": "1620", "name": "Суслонгер", "areas": [], "utc_offset": "+03:00", "lat": 56.311366, "lng": 48.249709}, {"id": "11883", "parent_id": "1620", "name": "Шелангер", "areas": [], "utc_offset": "+03:00", "lat": 56.218782, "lng": 48.250122}, {"id": "4243", "parent_id": "1620", "name": "Юрино", "areas": [], "utc_offset": "+03:00", "lat": 56.293437, "lng": 46.297014}, {"id": "11958", "parent_id": "1620", "name": "Руэм", "areas": [], "utc_offset": "+03:00", "lat": 56.631649, "lng": 47.758312}], "utc_offset": "+03:00", "lat": 56.6324, "lng": 47.8959}, {"id": "1624", "parent_id": "113", "name": "Республика Татарстан", "areas": [{"id": "1625", "parent_id": "1624", "name": "Агрыз", "areas": [], "utc_offset": "+03:00", "lat": 56.525398, "lng": 52.933714}, {"id": "1626", "parent_id": "1624", "name": "Азнакаево", "areas": [], "utc_offset": "+03:00", "lat": 54.868589, "lng": 53.049791}, {"id": "4167", "parent_id": "1624", "name": "Айша", "areas": [], "utc_offset": "+03:00", "lat": 55.871218, "lng": 48.632391}, {"id": "7193", "parent_id": "1624", "name": "Аккузово", "areas": [], "utc_offset": "+03:00", "lat": 55.523453, "lng": 53.933314}, {"id": "4168", "parent_id": "1624", "name": "Аксубаево", "areas": [], "utc_offset": "+03:00", "lat": 54.847654, "lng": 50.802811}, {"id": "3658", "parent_id": "1624", "name": "Актаныш", "areas": [], "utc_offset": "+03:00", "lat": 55.7, "lng": 54.083333}, {"id": "4169", "parent_id": "1624", "name": "Актюбинский", "areas": [], "utc_offset": "+03:00", "lat": 54.81377, "lng": 52.801409}, {"id": "2695", "parent_id": "1624", "name": "Алексеевское", "areas": [], "utc_offset": "+03:00", "lat": 55.305333, "lng": 50.114063}, {"id": "1627", "parent_id": "1624", "name": "Альметьевск", "areas": [], "utc_offset": "+03:00", "lat": 54.884292, "lng": 52.268824}, {"id": "7259", "parent_id": "1624", "name": "Апазово", "areas": [], "utc_offset": "+03:00", "lat": 56.389363, "lng": 49.98078}, {"id": "2727", "parent_id": "1624", "name": "Апастово", "areas": [], "utc_offset": "+03:00", "lat": 55.200333, "lng": 48.512717}, {"id": "1628", "parent_id": "1624", "name": "Арск", "areas": [], "utc_offset": "+03:00", "lat": 56.090995, "lng": 49.879863}, {"id": "7026", "parent_id": "1624", "name": "Асеево", "areas": [], "utc_offset": "+03:00", "lat": 54.835995, "lng": 53.242868}, {"id": "7006", "parent_id": "1624", "name": "Атабаево", "areas": [], "utc_offset": "+03:00", "lat": 55.288132, "lng": 49.355238}, {"id": "7071", "parent_id": "1624", "name": "Аю", "areas": [], "utc_offset": "+03:00", "lat": 55.619335, "lng": 53.263664}, {"id": "1629", "parent_id": "1624", "name": "Бавлы", "areas": [], "utc_offset": "+03:00", "lat": 54.383604, "lng": 53.272428}, {"id": "4170", "parent_id": "1624", "name": "Базарные Матаки", "areas": [], "utc_offset": "+03:00", "lat": 54.904908, "lng": 49.927735}, {"id": "7222", "parent_id": "1624", "name": "Байряка", "areas": [], "utc_offset": "+03:00", "lat": 54.711639, "lng": 53.382287}, {"id": "2449", "parent_id": "1624", "name": "Балтаси", "areas": [], "utc_offset": "+03:00", "lat": 56.340993, "lng": 50.220665}, {"id": "4171", "parent_id": "1624", "name": "Бетьки", "areas": [], "utc_offset": "+03:00", "lat": 55.675017, "lng": 52.139809}, {"id": "7174", "parent_id": "1624", "name": "Биклянь", "areas": [], "utc_offset": "+03:00", "lat": 55.620936, "lng": 52.141471}, {"id": "7253", "parent_id": "1624", "name": "Биляр-Озеро", "areas": [], "utc_offset": "+03:00", "lat": 54.504447, "lng": 50.480199}, {"id": "7063", "parent_id": "1624", "name": "Билярск", "areas": [], "utc_offset": "+03:00", "lat": 54.984574, "lng": 50.383181}, {"id": "4172", "parent_id": "1624", "name": "Богатые Сабы", "areas": [], "utc_offset": "+03:00", "lat": 56.008264, "lng": 50.443475}, {"id": "1630", "parent_id": "1624", "name": "Болгар", "areas": [], "utc_offset": "+03:00", "lat": 54.973601, "lng": 49.03583}, {"id": "4173", "parent_id": "1624", "name": "Большая Атня", "areas": [], "utc_offset": "+03:00", "lat": 56.250707, "lng": 49.451969}, {"id": "7031", "parent_id": "1624", "name": "Большая Турма", "areas": [], "utc_offset": "+03:00", "lat": 55.055682, "lng": 48.661254}, {"id": "11932", "parent_id": "1624", "name": "Большие Кабаны", "areas": [], "utc_offset": "+03:00", "lat": 55.648392, "lng": 49.307825}, {"id": "4174", "parent_id": "1624", "name": "Большие Кайбицы", "areas": [], "utc_offset": "+03:00", "lat": 55.399765, "lng": 48.189845}, {"id": "7007", "parent_id": "1624", "name": "Большие Ключи", "areas": [], "utc_offset": "+03:00", "lat": 55.983021, "lng": 48.803852}, {"id": "6463", "parent_id": "1624", "name": "Большие Тарханы", "areas": [], "utc_offset": "+03:00", "lat": 54.705833, "lng": 48.545278}, {"id": "7090", "parent_id": "1624", "name": "Большое Афанасово", "areas": [], "utc_offset": "+03:00", "lat": 55.600181, "lng": 51.77565}, {"id": "7036", "parent_id": "1624", "name": "Большое Нуркеево", "areas": [], "utc_offset": "+03:00", "lat": 55.379153, "lng": 52.669878}, {"id": "7061", "parent_id": "1624", "name": "Большое Подберезье", "areas": [], "utc_offset": "+03:00", "lat": 55.356462, "lng": 47.978822}, {"id": "7182", "parent_id": "1624", "name": "Большое Шемякино", "areas": [], "utc_offset": "+03:00", "lat": 55.037995, "lng": 48.627702}, {"id": "7054", "parent_id": "1624", "name": "Большой Сухояш", "areas": [], "utc_offset": "+03:00", "lat": 54.991325, "lng": 53.148905}, {"id": "7138", "parent_id": "1624", "name": "Большой Чекмак", "areas": [], "utc_offset": "+03:00", "lat": 55.22716, "lng": 53.158633}, {"id": "1631", "parent_id": "1624", "name": "Бугульма", "areas": [], "utc_offset": "+03:00", "lat": 54.546702, "lng": 52.788845}, {"id": "1632", "parent_id": "1624", "name": "Буинск", "areas": [], "utc_offset": "+03:00", "lat": 54.970307, "lng": 48.292596}, {"id": "7021", "parent_id": "1624", "name": "Бураково", "areas": [], "utc_offset": "+03:00", "lat": 55.124763, "lng": 49.660612}, {"id": "7146", "parent_id": "1624", "name": "Бухарай", "areas": [], "utc_offset": "+03:00", "lat": 55.145272, "lng": 52.310121}, {"id": "6433", "parent_id": "1624", "name": "Васильево", "areas": [], "utc_offset": "+03:00", "lat": 55.835095, "lng": 48.653331}, {"id": "7242", "parent_id": "1624", "name": "Верхние Челны", "areas": [], "utc_offset": "+03:00", "lat": 55.370175, "lng": 51.782486}, {"id": "7194", "parent_id": "1624", "name": "Верхний Такермен", "areas": [], "utc_offset": "+03:00", "lat": 55.652644, "lng": 52.693872}, {"id": "4175", "parent_id": "1624", "name": "Верхний Услон", "areas": [], "utc_offset": "+03:00", "lat": 55.766962, "lng": 48.978584}, {"id": "4176", "parent_id": "1624", "name": "Высокая Гора", "areas": [], "utc_offset": "+03:00", "lat": 55.912112, "lng": 49.312793}, {"id": "7230", "parent_id": "1624", "name": "Габишево", "areas": [], "utc_offset": "+03:00", "lat": 55.611424, "lng": 49.14223}, {"id": "7018", "parent_id": "1624", "name": "Деушево", "areas": [], "utc_offset": "+03:00", "lat": 55.175046, "lng": 48.360947}, {"id": "4177", "parent_id": "1624", "name": "Джалиль", "areas": [], "utc_offset": "+03:00", "lat": 55.021885, "lng": 52.738994}, {"id": "7125", "parent_id": "1624", "name": "Дубъязы", "areas": [], "utc_offset": "+03:00", "lat": 56.121707, "lng": 49.195949}, {"id": "1633", "parent_id": "1624", "name": "Елабуга", "areas": [], "utc_offset": "+03:00", "lat": 55.763714, "lng": 52.041873}, {"id": "7068", "parent_id": "1624", "name": "Елантово", "areas": [], "utc_offset": "+03:00", "lat": 55.285215, "lng": 51.199821}, {"id": "7241", "parent_id": "1624", "name": "Елаур", "areas": [], "utc_offset": "+03:00", "lat": 54.56814, "lng": 50.359833}, {"id": "7070", "parent_id": "1624", "name": "Елхово", "areas": [], "utc_offset": "+03:00", "lat": 54.891567, "lng": 51.621059}, {"id": "7214", "parent_id": "1624", "name": "Ерыкла", "areas": [], "utc_offset": "+03:00", "lat": 54.952667, "lng": 50.225526}, {"id": "7273", "parent_id": "1624", "name": "Жуково", "areas": [], "utc_offset": "+03:00", "lat": 54.802391, "lng": 48.63523}, {"id": "1634", "parent_id": "1624", "name": "Заинск", "areas": [], "utc_offset": "+03:00", "lat": 55.285714, "lng": 52.010094}, {"id": "7017", "parent_id": "1624", "name": "Зай-Каратай", "areas": [], "utc_offset": "+03:00", "lat": 54.706141, "lng": 52.37974}, {"id": "7117", "parent_id": "1624", "name": "Зеленая Роща", "areas": [], "utc_offset": "+03:00", "lat": 54.483551, "lng": 52.045621}, {"id": "11978", "parent_id": "1624", "name": "Новый (Республика Татарстан)", "areas": [], "utc_offset": "+03:00", "lat": 55.704362, "lng": 52.660392}, {"id": "1635", "parent_id": "1624", "name": "Зеленодольск (Республика Татарстан)", "areas": [], "utc_offset": "+03:00", "lat": 55.855402, "lng": 48.512514}, {"id": "7231", "parent_id": "1624", "name": "Именьково", "areas": [], "utc_offset": "+03:00", "lat": 55.421879, "lng": 49.730833}, {"id": "2734", "parent_id": "1624", "name": "Иннополис", "areas": [], "utc_offset": "+03:00", "lat": 55.76481, "lng": 48.743189}, {"id": "7277", "parent_id": "1624", "name": "Исенбаево", "areas": [], "utc_offset": "+03:00", "lat": 56.04751, "lng": 53.417815}, {"id": "7032", "parent_id": "1624", "name": "Иске-Рязап", "areas": [], "utc_offset": "+03:00", "lat": 54.593777, "lng": 49.669564}, {"id": "7051", "parent_id": "1624", "name": "Кадыбаш", "areas": [], "utc_offset": "+03:00", "lat": 56.1582, "lng": 53.421786}, {"id": "7096", "parent_id": "1624", "name": "Кадырово", "areas": [], "utc_offset": "+03:00", "lat": 55.450323, "lng": 52.109239}, {"id": "7033", "parent_id": "1624", "name": "Каенлы", "areas": [], "utc_offset": "+03:00", "lat": 55.489259, "lng": 51.723045}, {"id": "88", "parent_id": "1624", "name": "Казань", "areas": [], "utc_offset": "+03:00", "lat": 55.824874, "lng": 49.086087}, {"id": "7049", "parent_id": "1624", "name": "Какре-Елга", "areas": [], "utc_offset": "+03:00", "lat": 54.944228, "lng": 52.922924}, {"id": "7164", "parent_id": "1624", "name": "Калмаш", "areas": [], "utc_offset": "+03:00", "lat": 55.732464, "lng": 52.635383}, {"id": "3715", "parent_id": "1624", "name": "Камские Поляны", "areas": [], "utc_offset": "+03:00", "lat": 55.428695, "lng": 51.41371}, {"id": "7010", "parent_id": "1624", "name": "Камский Леспромхоз", "areas": [], "utc_offset": "+03:00", "lat": 55.537877, "lng": 50.837144}, {"id": "2726", "parent_id": "1624", "name": "Камское Устье", "areas": [], "utc_offset": "+03:00", "lat": 55.197029, "lng": 49.252956}, {"id": "4178", "parent_id": "1624", "name": "Карабаш (Республика Татарстан)", "areas": [], "utc_offset": "+03:00", "lat": 54.695461, "lng": 52.57595}, {"id": "7069", "parent_id": "1624", "name": "Караталга", "areas": [], "utc_offset": "+03:00", "lat": 55.284005, "lng": 48.832554}, {"id": "7037", "parent_id": "1624", "name": "Каргали", "areas": [], "utc_offset": "+03:00", "lat": 55.21407, "lng": 50.899056}, {"id": "7105", "parent_id": "1624", "name": "Каркаусь", "areas": [], "utc_offset": "+03:00", "lat": 56.104828, "lng": 51.142571}, {"id": "7263", "parent_id": "1624", "name": "Кармалы", "areas": [], "utc_offset": "+03:00", "lat": 55.303196, "lng": 51.175548}, {"id": "7043", "parent_id": "1624", "name": "Кият", "areas": [], "utc_offset": "+03:00", "lat": 54.88007, "lng": 48.406572}, {"id": "7187", "parent_id": "1624", "name": "Кляшево", "areas": [], "utc_offset": "+03:00", "lat": 54.97917, "lng": 48.507624}, {"id": "7011", "parent_id": "1624", "name": "Коноваловка", "areas": [], "utc_offset": "+03:00", "lat": 55.690988, "lng": 52.952066}, {"id": "7248", "parent_id": "1624", "name": "Кощаково", "areas": [], "utc_offset": "+03:00", "lat": 55.798242, "lng": 49.406721}, {"id": "7095", "parent_id": "1624", "name": "Красный Бор (Республика Татарстан)", "areas": [], "utc_offset": "+03:00", "lat": 55.890674, "lng": 53.082088}, {"id": "7282", "parent_id": "1624", "name": "Красный Ключ", "areas": [], "utc_offset": "+03:00", "lat": 55.683244, "lng": 51.818293}, {"id": "11708", "parent_id": "1624", "name": "Круглое Поле", "areas": [], "utc_offset": "+03:00", "lat": 55.621409, "lng": 52.18053}, {"id": "7243", "parent_id": "1624", "name": "Кряш-Шуран", "areas": [], "utc_offset": "+03:00", "lat": 55.431397, "lng": 53.148366}, {"id": "7220", "parent_id": "1624", "name": "Кузембетьево", "areas": [], "utc_offset": "+03:00", "lat": 55.63221, "lng": 52.757536}, {"id": "4179", "parent_id": "1624", "name": "Куйбышевский Затон", "areas": [], "utc_offset": "+03:00", "lat": 55.157012, "lng": 49.170033}, {"id": "2628", "parent_id": "1624", "name": "Кукмор", "areas": [], "utc_offset": "+03:00", "lat": 56.173317, "lng": 50.9113}, {"id": "7255", "parent_id": "1624", "name": "Кулаево", "areas": [], "utc_offset": "+03:00", "lat": 55.712097, "lng": 49.570618}, {"id": "7147", "parent_id": "1624", "name": "Куркачи", "areas": [], "utc_offset": "+03:00", "lat": 56.001917, "lng": 49.606308}, {"id": "7020", "parent_id": "1624", "name": "Кутемели", "areas": [], "utc_offset": "+03:00", "lat": 55.128773, "lng": 52.506699}, {"id": "6462", "parent_id": "1624", "name": "Кутлу-Букаш", "areas": [], "utc_offset": "+03:00", "lat": 55.634722, "lng": 50.636111}, {"id": "6895", "parent_id": "1624", "name": "Куюки", "areas": [], "utc_offset": "+03:00", "lat": 55.713889, "lng": 49.348056}, {"id": "1636", "parent_id": "1624", "name": "Лаишево", "areas": [], "utc_offset": "+03:00", "lat": 55.404765, "lng": 49.539165}, {"id": "1637", "parent_id": "1624", "name": "Лениногорск", "areas": [], "utc_offset": "+03:00", "lat": 54.596716, "lng": 52.459961}, {"id": "7238", "parent_id": "1624", "name": "Ленино-Кокушкино", "areas": [], "utc_offset": "+03:00", "lat": 55.825077, "lng": 49.683959}, {"id": "7210", "parent_id": "1624", "name": "Лубяны", "areas": [], "utc_offset": "+03:00", "lat": 56.039862, "lng": 51.398268}, {"id": "7097", "parent_id": "1624", "name": "Мактама", "areas": [], "utc_offset": "+03:00", "lat": 54.862135, "lng": 52.426893}, {"id": "7254", "parent_id": "1624", "name": "Макулово", "areas": [], "utc_offset": "+03:00", "lat": 55.595486, "lng": 48.720246}, {"id": "7281", "parent_id": "1624", "name": "Малая Елга", "areas": [], "utc_offset": "+03:00", "lat": 55.411102, "lng": 49.841865}, {"id": "7035", "parent_id": "1624", "name": "Малая Шильна", "areas": [], "utc_offset": "+03:00", "lat": 55.802017, "lng": 52.533819}, {"id": "7128", "parent_id": "1624", "name": "Малые Меми", "areas": [], "utc_offset": "+03:00", "lat": 55.447647, "lng": 48.514568}, {"id": "1638", "parent_id": "1624", "name": "Мамадыш", "areas": [], "utc_offset": "+03:00", "lat": 55.713286, "lng": 51.400546}, {"id": "7149", "parent_id": "1624", "name": "Мамыково", "areas": [], "utc_offset": "+03:00", "lat": 54.641717, "lng": 50.604732}, {"id": "1639", "parent_id": "1624", "name": "Менделеевск", "areas": [], "utc_offset": "+03:00", "lat": 55.896086, "lng": 52.310728}, {"id": "1640", "parent_id": "1624", "name": "Мензелинск", "areas": [], "utc_offset": "+03:00", "lat": 55.705997, "lng": 53.075868}, {"id": "7172", "parent_id": "1624", "name": "Мокрые Курнали", "areas": [], "utc_offset": "+03:00", "lat": 55.291782, "lng": 49.988811}, {"id": "7065", "parent_id": "1624", "name": "Муртыш-Тамак", "areas": [], "utc_offset": "+03:00", "lat": 55.219514, "lng": 52.599181}, {"id": "4180", "parent_id": "1624", "name": "Муслюмово", "areas": [], "utc_offset": "+03:00", "lat": 55.304534, "lng": 53.189994}, {"id": "7139", "parent_id": "1624", "name": "Мюд", "areas": [], "utc_offset": "+03:00", "lat": 54.708482, "lng": 50.783191}, {"id": "1641", "parent_id": "1624", "name": "Набережные Челны", "areas": [], "utc_offset": "+03:00", "lat": 55.713502, "lng": 52.365375}, {"id": "7197", "parent_id": "1624", "name": "Нармонка", "areas": [], "utc_offset": "+03:00", "lat": 55.490294, "lng": 49.295851}, {"id": "7044", "parent_id": "1624", "name": "Нижнее Алькеево", "areas": [], "utc_offset": "+03:00", "lat": 54.778783, "lng": 50.034293}, {"id": "1642", "parent_id": "1624", "name": "Нижнекамск", "areas": [], "utc_offset": "+03:00", "lat": 55.613212, "lng": 51.841137}, {"id": "7013", "parent_id": "1624", "name": "Нижние Аты", "areas": [], "utc_offset": "+03:00", "lat": 56.118736, "lng": 49.691936}, {"id": "3077", "parent_id": "1624", "name": "Нижние Вязовые", "areas": [], "utc_offset": "+03:00", "lat": 55.800278, "lng": 48.5125}, {"id": "7209", "parent_id": "1624", "name": "Нижний Каракитан", "areas": [], "utc_offset": "+03:00", "lat": 54.726855, "lng": 47.333957}, {"id": "7249", "parent_id": "1624", "name": "Нижний Таканыш", "areas": [], "utc_offset": "+03:00", "lat": 55.933872, "lng": 51.047862}, {"id": "4181", "parent_id": "1624", "name": "Нижняя Мактама", "areas": [], "utc_offset": "+03:00", "lat": 54.861482, "lng": 52.423713}, {"id": "7124", "parent_id": "1624", "name": "Новое Ибрайкино", "areas": [], "utc_offset": "+03:00", "lat": 54.866632, "lng": 51.168928}, {"id": "7111", "parent_id": "1624", "name": "Новое Каширово", "areas": [], "utc_offset": "+03:00", "lat": 54.961563, "lng": 52.531367}, {"id": "11813", "parent_id": "1624", "name": "Новое Шигалеево (Татарстан)", "areas": [], "utc_offset": "+03:00", "lat": 55.815023, "lng": 49.455149}, {"id": "6893", "parent_id": "1624", "name": "Новое Шигалиево", "areas": [], "utc_offset": "+03:00", "lat": 55.815, "lng": 49.454722}, {"id": "4182", "parent_id": "1624", "name": "Новошешминск", "areas": [], "utc_offset": "+03:00", "lat": 55.061658, "lng": 51.224147}, {"id": "7078", "parent_id": "1624", "name": "Новый Кинер", "areas": [], "utc_offset": "+03:00", "lat": 56.397813, "lng": 49.710468}, {"id": "1643", "parent_id": "1624", "name": "Нурлат", "areas": [], "utc_offset": "+03:00", "lat": 54.426975, "lng": 50.81677}, {"id": "7030", "parent_id": "1624", "name": "Нурлаты", "areas": [], "utc_offset": "+03:00", "lat": 55.614831, "lng": 48.292172}, {"id": "7158", "parent_id": "1624", "name": "Октябрьский (Республика Татарстан)", "areas": [], "utc_offset": "+03:00", "lat": 55.831509, "lng": 48.799064}, {"id": "4183", "parent_id": "1624", "name": "Осиново", "areas": [], "utc_offset": "+03:00", "lat": 55.877556, "lng": 48.889785}, {"id": "11857", "parent_id": "1624", "name": "Пановка (Республика Татарстан)", "areas": [], "utc_offset": "+03:00", "lat": 55.827348, "lng": 49.94253}, {"id": "2725", "parent_id": "1624", "name": "Пестрецы", "areas": [], "utc_offset": "+03:00", "lat": 55.754568, "lng": 49.652733}, {"id": "7217", "parent_id": "1624", "name": "Песчаные Ковали", "areas": [], "utc_offset": "+03:00", "lat": 55.628246, "lng": 49.146129}, {"id": "7136", "parent_id": "1624", "name": "Петровский Завод", "areas": [], "utc_offset": "+03:00", "lat": 55.318742, "lng": 52.495317}, {"id": "7039", "parent_id": "1624", "name": "Победа", "areas": [], "utc_offset": "+03:00", "lat": 55.745205, "lng": 52.026585}, {"id": "7081", "parent_id": "1624", "name": "Поисево", "areas": [], "utc_offset": "+03:00", "lat": 55.53774, "lng": 53.49304}, {"id": "7159", "parent_id": "1624", "name": "Поселок Бирюлинского Зверосовхоза", "areas": [], "utc_offset": "+03:00", "lat": 55.977331, "lng": 49.383648}, {"id": "7052", "parent_id": "1624", "name": "Поселок станции Каратун", "areas": [], "utc_offset": "+03:00", "lat": 55.23674, "lng": 48.404812}, {"id": "4184", "parent_id": "1624", "name": "Русский Акташ", "areas": [], "utc_offset": "+03:00", "lat": 55.042365, "lng": 52.11984}, {"id": "4185", "parent_id": "1624", "name": "Рыбная Слобода", "areas": [], "utc_offset": "+03:00", "lat": 55.463151, "lng": 50.14033}, {"id": "7275", "parent_id": "1624", "name": "Саклов-Баш", "areas": [], "utc_offset": "+03:00", "lat": 55.382825, "lng": 52.878036}, {"id": "4186", "parent_id": "1624", "name": "Сарманово", "areas": [], "utc_offset": "+03:00", "lat": 55.258997, "lng": 52.59265}, {"id": "7229", "parent_id": "1624", "name": "Сатламышево", "areas": [], "utc_offset": "+03:00", "lat": 55.377828, "lng": 48.462978}, {"id": "7047", "parent_id": "1624", "name": "Светлое Озеро", "areas": [], "utc_offset": "+03:00", "lat": 55.181971, "lng": 52.011233}, {"id": "7235", "parent_id": "1624", "name": "Совхоз Татарстан", "areas": [], "utc_offset": "+03:00", "lat": 55.620464, "lng": 52.596791}, {"id": "6317", "parent_id": "1624", "name": "Сокуры", "areas": [], "utc_offset": "+03:00", "lat": 55.3713, "lng": 49.2341}, {"id": "7183", "parent_id": "1624", "name": "Старое Альметьево", "areas": [], "utc_offset": "+03:00", "lat": 54.781706, "lng": 50.352368}, {"id": "3692", "parent_id": "1624", "name": "Старое Дрожжаное", "areas": [], "utc_offset": "+03:00", "lat": 54.723611, "lng": 47.560833}, {"id": "7042", "parent_id": "1624", "name": "Старое Сафарово", "areas": [], "utc_offset": "+03:00", "lat": 55.550096, "lng": 53.787059}, {"id": "7223", "parent_id": "1624", "name": "Старое Шаймурзино", "areas": [], "utc_offset": "+03:00", "lat": 54.749507, "lng": 47.976001}, {"id": "7211", "parent_id": "1624", "name": "Старошешминск", "areas": [], "utc_offset": "+03:00", "lat": 55.380524, "lng": 51.247189}, {"id": "7250", "parent_id": "1624", "name": "Старые Бугады", "areas": [], "utc_offset": "+03:00", "lat": 55.614612, "lng": 53.897399}, {"id": "7245", "parent_id": "1624", "name": "Старые Карамалы", "areas": [], "utc_offset": "+03:00", "lat": 55.316984, "lng": 53.550452}, {"id": "7247", "parent_id": "1624", "name": "Старые Челны", "areas": [], "utc_offset": "+03:00", "lat": 54.55382, "lng": 50.962199}, {"id": "7118", "parent_id": "1624", "name": "Старый Кашир", "areas": [], "utc_offset": "+03:00", "lat": 55.156281, "lng": 52.5506}, {"id": "7215", "parent_id": "1624", "name": "Старый Кувак", "areas": [], "utc_offset": "+03:00", "lat": 54.625343, "lng": 51.953723}, {"id": "7103", "parent_id": "1624", "name": "Старый Юраш", "areas": [], "utc_offset": "+03:00", "lat": 55.907001, "lng": 51.734247}, {"id": "6315", "parent_id": "1624", "name": "Столбище", "areas": [], "utc_offset": "+03:00", "lat": 55.385, "lng": 49.13}, {"id": "7179", "parent_id": "1624", "name": "Сулеево", "areas": [], "utc_offset": "+03:00", "lat": 54.993639, "lng": 52.619447}, {"id": "7019", "parent_id": "1624", "name": "Такталачук", "areas": [], "utc_offset": "+03:00", "lat": 55.766663, "lng": 53.866371}, {"id": "7046", "parent_id": "1624", "name": "Татарские Суксы", "areas": [], "utc_offset": "+03:00", "lat": 55.752328, "lng": 53.6601}, {"id": "7246", "parent_id": "1624", "name": "Татарские Ямалы", "areas": [], "utc_offset": "+03:00", "lat": 55.828162, "lng": 53.761744}, {"id": "7252", "parent_id": "1624", "name": "Татарский Сарсаз", "areas": [], "utc_offset": "+03:00", "lat": 55.24739, "lng": 50.819816}, {"id": "7131", "parent_id": "1624", "name": "Татарское Адельшино", "areas": [], "utc_offset": "+03:00", "lat": 55.184001, "lng": 50.470308}, {"id": "7073", "parent_id": "1624", "name": "Тенишево", "areas": [], "utc_offset": "+03:00", "lat": 55.247493, "lng": 49.209541}, {"id": "7109", "parent_id": "1624", "name": "Теньки", "areas": [], "utc_offset": "+03:00", "lat": 55.43415, "lng": 48.992651}, {"id": "7218", "parent_id": "1624", "name": "Терси", "areas": [], "utc_offset": "+03:00", "lat": 56.329237, "lng": 52.888303}, {"id": "1644", "parent_id": "1624", "name": "Тетюши", "areas": [], "utc_offset": "+03:00", "lat": 54.940723, "lng": 48.830705}, {"id": "5115", "parent_id": "1624", "name": "Тимяшево", "areas": [], "utc_offset": "+03:00", "lat": 54.57076, "lng": 52.372697}, {"id": "7101", "parent_id": "1624", "name": "Тлянче-Тамак", "areas": [], "utc_offset": "+03:00", "lat": 55.473725, "lng": 52.626768}, {"id": "7219", "parent_id": "1624", "name": "Тумутук", "areas": [], "utc_offset": "+03:00", "lat": 55.016017, "lng": 53.297154}, {"id": "4187", "parent_id": "1624", "name": "Тюлячи", "areas": [], "utc_offset": "+03:00", "lat": 55.890689, "lng": 50.232237}, {"id": "7060", "parent_id": "1624", "name": "Тюрнясево", "areas": [], "utc_offset": "+03:00", "lat": 54.588888, "lng": 50.586721}, {"id": "4188", "parent_id": "1624", "name": "Убей", "areas": [], "utc_offset": "+03:00", "lat": 54.787396, "lng": 47.764969}, {"id": "7151", "parent_id": "1624", "name": "Урняк", "areas": [], "utc_offset": "+03:00", "lat": 56.233169, "lng": 50.003193}, {"id": "2953", "parent_id": "1624", "name": "Уруссу", "areas": [], "utc_offset": "+03:00", "lat": 54.595833, "lng": 53.4625}, {"id": "7148", "parent_id": "1624", "name": "Урюм", "areas": [], "utc_offset": "+03:00", "lat": 54.772593, "lng": 48.758191}, {"id": "6465", "parent_id": "1624", "name": "Усады", "areas": [], "utc_offset": "+03:00", "lat": 55.679167, "lng": 49.219444}, {"id": "7016", "parent_id": "1624", "name": "Учалле", "areas": [], "utc_offset": "+03:00", "lat": 54.90953, "lng": 53.306424}, {"id": "7130", "parent_id": "1624", "name": "Хозесаново", "areas": [], "utc_offset": "+03:00", "lat": 55.367274, "lng": 47.835702}, {"id": "7084", "parent_id": "1624", "name": "Ципья", "areas": [], "utc_offset": "+03:00", "lat": 56.525271, "lng": 50.29961}, {"id": "7228", "parent_id": "1624", "name": "Чалпы", "areas": [], "utc_offset": "+03:00", "lat": 55.085724, "lng": 53.080974}, {"id": "7203", "parent_id": "1624", "name": "Чепчуги", "areas": [], "utc_offset": "+03:00", "lat": 56.001902, "lng": 49.514869}, {"id": "4189", "parent_id": "1624", "name": "Черемшан", "areas": [], "utc_offset": "+03:00", "lat": 55.261121, "lng": 48.112581}, {"id": "1645", "parent_id": "1624", "name": "Чистополь", "areas": [], "utc_offset": "+03:00", "lat": 55.365144, "lng": 50.634407}, {"id": "4190", "parent_id": "1624", "name": "Чувашское Дрожжаное", "areas": [], "utc_offset": "+03:00", "lat": 54.707842, "lng": 47.525855}, {"id": "7066", "parent_id": "1624", "name": "Чэчэкле", "areas": [], "utc_offset": "+03:00", "lat": 54.66073, "lng": 49.57767}, {"id": "7161", "parent_id": "1624", "name": "Шапши", "areas": [], "utc_offset": "+03:00", "lat": 55.953326, "lng": 49.495052}, {"id": "7202", "parent_id": "1624", "name": "Шеланга", "areas": [], "utc_offset": "+03:00", "lat": 55.528116, "lng": 49.00636}, {"id": "4191", "parent_id": "1624", "name": "Шемордан", "areas": [], "utc_offset": "+03:00", "lat": 56.187341, "lng": 50.39644}, {"id": "7212", "parent_id": "1624", "name": "Шереметьевка", "areas": [], "utc_offset": "+03:00", "lat": 55.386221, "lng": 51.555132}, {"id": "7150", "parent_id": "1624", "name": "Шингальчи", "areas": [], "utc_offset": "+03:00", "lat": 55.513927, "lng": 51.820189}, {"id": "7050", "parent_id": "1624", "name": "Шипки", "areas": [], "utc_offset": "+03:00", "lat": 55.332038, "lng": 51.863424}, {"id": "7181", "parent_id": "1624", "name": "Шушмабаш", "areas": [], "utc_offset": "+03:00", "lat": 56.392159, "lng": 49.877321}, {"id": "7283", "parent_id": "1624", "name": "Юлтимерово", "areas": [], "utc_offset": "+03:00", "lat": 55.361994, "lng": 52.608999}, {"id": "7034", "parent_id": "1624", "name": "Ютаза", "areas": [], "utc_offset": "+03:00", "lat": 54.590834, "lng": 53.270015}, {"id": "7251", "parent_id": "1624", "name": "Юхмачи", "areas": [], "utc_offset": "+03:00", "lat": 54.625515, "lng": 49.975229}], "utc_offset": "+03:00", "lat": 55.7963, "lng": 49.1088}, {"id": "1646", "parent_id": "113", "name": "Удмуртская Республика", "areas": [{"id": "4192", "parent_id": "1646", "name": "Алнаши", "areas": [], "utc_offset": "+04:00", "lat": 56.116162, "lng": 52.5612}, {"id": "7057", "parent_id": "1646", "name": "Арзамасцево", "areas": [], "utc_offset": "+04:00", "lat": 56.1472, "lng": 53.700075}, {"id": "7256", "parent_id": "1646", "name": "Бабино", "areas": [], "utc_offset": "+04:00", "lat": 56.65459, "lng": 53.464267}, {"id": "3768", "parent_id": "1646", "name": "Балезино", "areas": [], "utc_offset": "+04:00", "lat": 57.976496, "lng": 53.007402}, {"id": "7112", "parent_id": "1646", "name": "Балезино-3", "areas": [], "utc_offset": "+04:00", "lat": 57.862342, "lng": 53.263844}, {"id": "11898", "parent_id": "1646", "name": "Бемыж", "areas": [], "utc_offset": "+04:00", "lat": 56.147094, "lng": 51.720979}, {"id": "7110", "parent_id": "1646", "name": "Большая Уча", "areas": [], "utc_offset": "+04:00", "lat": 56.609745, "lng": 52.079011}, {"id": "7058", "parent_id": "1646", "name": "Большое Волково", "areas": [], "utc_offset": "+04:00", "lat": 56.698957, "lng": 51.978831}, {"id": "4193", "parent_id": "1646", "name": "Большой Зетым", "areas": [], "utc_offset": "+04:00", "lat": 57.596378, "lng": 53.777905}, {"id": "7204", "parent_id": "1646", "name": "Булай", "areas": [], "utc_offset": "+04:00", "lat": 56.682056, "lng": 52.316121}, {"id": "4194", "parent_id": "1646", "name": "Вавож", "areas": [], "utc_offset": "+04:00", "lat": 56.774204, "lng": 51.92654}, {"id": "7233", "parent_id": "1646", "name": "Водзимонье", "areas": [], "utc_offset": "+04:00", "lat": 56.815572, "lng": 51.621634}, {"id": "1647", "parent_id": "1646", "name": "Воткинск", "areas": [], "utc_offset": "+04:00", "lat": 57.033542, "lng": 53.938697}, {"id": "1648", "parent_id": "1646", "name": "Глазов", "areas": [], "utc_offset": "+04:00", "lat": 58.130509, "lng": 52.659617}, {"id": "4195", "parent_id": "1646", "name": "Грахово", "areas": [], "utc_offset": "+04:00", "lat": 56.046941, "lng": 51.966093}, {"id": "4196", "parent_id": "1646", "name": "Дебёсы", "areas": [], "utc_offset": "+04:00", "lat": 57.651422, "lng": 53.806103}, {"id": "7155", "parent_id": "1646", "name": "Дизьмино", "areas": [], "utc_offset": "+04:00", "lat": 58.217021, "lng": 52.147804}, {"id": "4197", "parent_id": "1646", "name": "Ершовка", "areas": [], "utc_offset": "+04:00", "lat": 56.456174, "lng": 53.878588}, {"id": "4198", "parent_id": "1646", "name": "Завьялово", "areas": [], "utc_offset": "+04:00", "lat": 56.786271, "lng": 53.374166}, {"id": "4199", "parent_id": "1646", "name": "Засеково", "areas": [], "utc_offset": "+04:00", "lat": 57.852525, "lng": 52.430603}, {"id": "7284", "parent_id": "1646", "name": "Зура", "areas": [], "utc_offset": "+04:00", "lat": 57.60517, "lng": 53.406236}, {"id": "3717", "parent_id": "1646", "name": "Игра", "areas": [], "utc_offset": "+04:00", "lat": 57.55, "lng": 53.086111}, {"id": "96", "parent_id": "1646", "name": "Ижевск", "areas": [], "utc_offset": "+04:00", "lat": 56.863809, "lng": 53.2281}, {"id": "7027", "parent_id": "1646", "name": "Июльское", "areas": [], "utc_offset": "+04:00", "lat": 56.919136, "lng": 53.605734}, {"id": "7062", "parent_id": "1646", "name": "Какмож", "areas": [], "utc_offset": "+04:00", "lat": 56.851978, "lng": 51.854217}, {"id": "7088", "parent_id": "1646", "name": "Кама", "areas": [], "utc_offset": "+04:00", "lat": 56.307556, "lng": 54.093016}, {"id": "1649", "parent_id": "1646", "name": "Камбарка", "areas": [], "utc_offset": "+04:00", "lat": 56.256743, "lng": 54.190698}, {"id": "11930", "parent_id": "1646", "name": "Каменное (Удмуртская Республика)", "areas": [], "utc_offset": "+04:00", "lat": 56.730781, "lng": 53.288736}, {"id": "7163", "parent_id": "1646", "name": "Камское", "areas": [], "utc_offset": "+04:00", "lat": 56.288811, "lng": 54.134833}, {"id": "4200", "parent_id": "1646", "name": "Каракулино", "areas": [], "utc_offset": "+04:00", "lat": 56.011726, "lng": 53.704701}, {"id": "7092", "parent_id": "1646", "name": "Каркалай", "areas": [], "utc_offset": "+04:00", "lat": 56.984544, "lng": 52.377737}, {"id": "7152", "parent_id": "1646", "name": "Карсовай", "areas": [], "utc_offset": "+04:00", "lat": 58.228823, "lng": 53.187406}, {"id": "7189", "parent_id": "1646", "name": "Кварса", "areas": [], "utc_offset": "+04:00", "lat": 56.959288, "lng": 53.945351}, {"id": "7157", "parent_id": "1646", "name": "Кватчи", "areas": [], "utc_offset": "+04:00", "lat": 56.397759, "lng": 52.384609}, {"id": "4201", "parent_id": "1646", "name": "Кез", "areas": [], "utc_offset": "+04:00", "lat": 57.895534, "lng": 53.711924}, {"id": "11676", "parent_id": "1646", "name": "Кечёво", "areas": [], "utc_offset": "+04:00", "lat": 56.513646, "lng": 53.204906}, {"id": "7175", "parent_id": "1646", "name": "Кигбаево", "areas": [], "utc_offset": "+04:00", "lat": 56.362676, "lng": 53.631776}, {"id": "4202", "parent_id": "1646", "name": "Кизнер", "areas": [], "utc_offset": "+04:00", "lat": 56.283615, "lng": 51.516648}, {"id": "4203", "parent_id": "1646", "name": "Кильмезь", "areas": [], "utc_offset": "+04:00", "lat": 57.009872, "lng": 51.333374}, {"id": "4204", "parent_id": "1646", "name": "Киясово", "areas": [], "utc_offset": "+04:00", "lat": 56.345913, "lng": 53.123527}, {"id": "4205", "parent_id": "1646", "name": "Красногорское", "areas": [], "utc_offset": "+04:00", "lat": 57.707618, "lng": 52.499818}, {"id": "7056", "parent_id": "1646", "name": "Кулига", "areas": [], "utc_offset": "+04:00", "lat": 58.183098, "lng": 53.762122}, {"id": "7041", "parent_id": "1646", "name": "Кыйлуд", "areas": [], "utc_offset": "+04:00", "lat": 56.865909, "lng": 52.458154}, {"id": "7040", "parent_id": "1646", "name": "Лынга", "areas": [], "utc_offset": "+04:00", "lat": 57.296283, "lng": 53.028512}, {"id": "7108", "parent_id": "1646", "name": "Мазунино", "areas": [], "utc_offset": "+04:00", "lat": 56.314387, "lng": 53.994965}, {"id": "11995", "parent_id": "1646", "name": "Малая Венья", "areas": [], "utc_offset": "+04:00", "lat": 56.752106, "lng": 53.164814}, {"id": "4206", "parent_id": "1646", "name": "Малая Пурга", "areas": [], "utc_offset": "+04:00", "lat": 56.555872, "lng": 52.998922}, {"id": "7008", "parent_id": "1646", "name": "Менил", "areas": [], "utc_offset": "+04:00", "lat": 57.63635, "lng": 53.091403}, {"id": "1650", "parent_id": "1646", "name": "Можга", "areas": [], "utc_offset": "+04:00", "lat": 56.444165, "lng": 52.229554}, {"id": "7028", "parent_id": "1646", "name": "Мукши", "areas": [], "utc_offset": "+04:00", "lat": 57.239774, "lng": 53.393022}, {"id": "7100", "parent_id": "1646", "name": "Нечкино", "areas": [], "utc_offset": "+04:00", "lat": 56.648914, "lng": 53.760612}, {"id": "7272", "parent_id": "1646", "name": "Новая Бия", "areas": [], "utc_offset": "+04:00", "lat": 56.798699, "lng": 51.696715}, {"id": "6753", "parent_id": "1646", "name": "Новый Мултан", "areas": [], "utc_offset": "+04:00", "lat": 57.151389, "lng": 52.285556}, {"id": "7098", "parent_id": "1646", "name": "Нылга", "areas": [], "utc_offset": "+04:00", "lat": 56.75938, "lng": 52.367532}, {"id": "7009", "parent_id": "1646", "name": "Нюрдор-Котья", "areas": [], "utc_offset": "+04:00", "lat": 56.804663, "lng": 51.87256}, {"id": "7137", "parent_id": "1646", "name": "Октябрьский (Удмуртская Республика)", "areas": [], "utc_offset": "+04:00", "lat": 58.084277, "lng": 52.86651}, {"id": "7038", "parent_id": "1646", "name": "Орловское", "areas": [], "utc_offset": "+04:00", "lat": 57.115153, "lng": 51.435692}, {"id": "17525", "parent_id": "1646", "name": "Первомайский (Воткинский район, Удмуртская Республика)", "areas": [], "utc_offset": "+04:00", "lat": 57.06763, "lng": 54.128482}, {"id": "17523", "parent_id": "1646", "name": "Первомайский (Завьяловский район, Удмуртская Республика)", "areas": [], "utc_offset": "+04:00", "lat": 56.853932, "lng": 53.360063}, {"id": "17524", "parent_id": "1646", "name": "Первомайский (Киясовский район, Удмуртская Республика)", "areas": [], "utc_offset": "+04:00", "lat": 56.374761, "lng": 53.236068}, {"id": "17543", "parent_id": "1646", "name": "Новый (Удмуртская Республика)", "areas": [], "utc_offset": "+04:00", "lat": 56.816252, "lng": 54.033314}, {"id": "4207", "parent_id": "1646", "name": "Пирогово", "areas": [], "utc_offset": "+04:00", "lat": 56.77995, "lng": 53.156801}, {"id": "7133", "parent_id": "1646", "name": "Подшивалово", "areas": [], "utc_offset": "+04:00", "lat": 56.733156, "lng": 52.967661}, {"id": "7166", "parent_id": "1646", "name": "Понино", "areas": [], "utc_offset": "+04:00", "lat": 58.252087, "lng": 52.819735}, {"id": "7160", "parent_id": "1646", "name": "Пугачево", "areas": [], "utc_offset": "+04:00", "lat": 56.594935, "lng": 53.065505}, {"id": "7207", "parent_id": "1646", "name": "Пудем", "areas": [], "utc_offset": "+04:00", "lat": 58.304296, "lng": 52.163004}, {"id": "7184", "parent_id": "1646", "name": "Пычас", "areas": [], "utc_offset": "+04:00", "lat": 56.499543, "lng": 52.44308}, {"id": "7072", "parent_id": "1646", "name": "Рябово (Удмуртская Республика)", "areas": [], "utc_offset": "+04:00", "lat": 56.916355, "lng": 52.075014}, {"id": "1651", "parent_id": "1646", "name": "Сарапул", "areas": [], "utc_offset": "+04:00", "lat": 56.449427, "lng": 53.738067}, {"id": "4208", "parent_id": "1646", "name": "Селты", "areas": [], "utc_offset": "+04:00", "lat": 57.310879, "lng": 52.140213}, {"id": "4209", "parent_id": "1646", "name": "Сигаево", "areas": [], "utc_offset": "+04:00", "lat": 56.422355, "lng": 53.775192}, {"id": "11677", "parent_id": "1646", "name": "Среднее Кечёво", "areas": [], "utc_offset": "+04:00", "lat": 56.521582, "lng": 53.211221}, {"id": "7077", "parent_id": "1646", "name": "Старые Зятцы", "areas": [], "utc_offset": "+04:00", "lat": 57.347504, "lng": 52.646908}, {"id": "7126", "parent_id": "1646", "name": "Старые Какси", "areas": [], "utc_offset": "+04:00", "lat": 56.264197, "lng": 52.258998}, {"id": "4210", "parent_id": "1646", "name": "Сюмси", "areas": [], "utc_offset": "+04:00", "lat": 57.110114, "lng": 51.614906}, {"id": "7196", "parent_id": "1646", "name": "Тарасово", "areas": [], "utc_offset": "+04:00", "lat": 56.251827, "lng": 54.110309}, {"id": "2959", "parent_id": "1646", "name": "Ува", "areas": [], "utc_offset": "+04:00", "lat": 56.979722, "lng": 52.177222}, {"id": "7236", "parent_id": "1646", "name": "Удугучин", "areas": [], "utc_offset": "+04:00", "lat": 57.214979, "lng": 52.460059}, {"id": "7165", "parent_id": "1646", "name": "Укан", "areas": [], "utc_offset": "+04:00", "lat": 58.163781, "lng": 52.04916}, {"id": "7285", "parent_id": "1646", "name": "Уральский (Удмуртская Республика)", "areas": [], "utc_offset": "+04:00", "lat": 56.493556, "lng": 53.52538}, {"id": "11695", "parent_id": "1646", "name": "Ушур", "areas": [], "utc_offset": "+04:00", "lat": 57.784883, "lng": 52.952731}, {"id": "7025", "parent_id": "1646", "name": "Факел", "areas": [], "utc_offset": "+04:00", "lat": 57.632096, "lng": 53.02394}, {"id": "4211", "parent_id": "1646", "name": "Хохряки", "areas": [], "utc_offset": "+04:00", "lat": 56.916089, "lng": 53.322765}, {"id": "7271", "parent_id": "1646", "name": "Чепца", "areas": [], "utc_offset": "+04:00", "lat": 57.889554, "lng": 53.405041}, {"id": "7143", "parent_id": "1646", "name": "Чур", "areas": [], "utc_offset": "+04:00", "lat": 57.115061, "lng": 52.96731}, {"id": "7122", "parent_id": "1646", "name": "Чутырь", "areas": [], "utc_offset": "+04:00", "lat": 57.394192, "lng": 53.236077}, {"id": "4212", "parent_id": "1646", "name": "Шаркан", "areas": [], "utc_offset": "+04:00", "lat": 57.30117, "lng": 53.871321}, {"id": "4213", "parent_id": "1646", "name": "Юкаменское", "areas": [], "utc_offset": "+04:00", "lat": 57.890358, "lng": 52.241076}, {"id": "7154", "parent_id": "1646", "name": "Яган-Докья", "areas": [], "utc_offset": "+04:00", "lat": 56.583267, "lng": 53.22872}, {"id": "7014", "parent_id": "1646", "name": "Якшур", "areas": [], "utc_offset": "+04:00", "lat": 56.884055, "lng": 53.437686}, {"id": "4214", "parent_id": "1646", "name": "Якшур-Бодья", "areas": [], "utc_offset": "+04:00", "lat": 57.185534, "lng": 53.159469}, {"id": "4215", "parent_id": "1646", "name": "Яр", "areas": [], "utc_offset": "+04:00", "lat": 58.245812, "lng": 52.105565}], "utc_offset": "+04:00", "lat": 56.8527, "lng": 53.2045}, {"id": "1652", "parent_id": "113", "name": "Чувашская Республика", "areas": [{"id": "7232", "parent_id": "1652", "name": "Айбечи", "areas": [], "utc_offset": "+03:00", "lat": 55.3443, "lng": 47.34506}, {"id": "7266", "parent_id": "1652", "name": "Аксарино", "areas": [], "utc_offset": "+03:00", "lat": 55.913182, "lng": 47.921824}, {"id": "1653", "parent_id": "1652", "name": "Алатырь", "areas": [], "utc_offset": "+03:00", "lat": 54.845064, "lng": 46.502027}, {"id": "4216", "parent_id": "1652", "name": "Аликово", "areas": [], "utc_offset": "+03:00", "lat": 55.737998, "lng": 46.747106}, {"id": "7226", "parent_id": "1652", "name": "Алманчиково", "areas": [], "utc_offset": "+03:00", "lat": 54.981712, "lng": 47.772119}, {"id": "7093", "parent_id": "1652", "name": "Алтышево", "areas": [], "utc_offset": "+03:00", "lat": 54.912547, "lng": 46.695686}, {"id": "7198", "parent_id": "1652", "name": "Анастасово", "areas": [], "utc_offset": "+03:00", "lat": 55.186931, "lng": 46.250337}, {"id": "7106", "parent_id": "1652", "name": "Анаткасы", "areas": [], "utc_offset": "+03:00", "lat": 55.606207, "lng": 47.272863}, {"id": "7086", "parent_id": "1652", "name": "Атнары", "areas": [], "utc_offset": "+03:00", "lat": 55.652578, "lng": 46.21012}, {"id": "7176", "parent_id": "1652", "name": "Атрать", "areas": [], "utc_offset": "+03:00", "lat": 55.008351, "lng": 46.669123}, {"id": "3678", "parent_id": "1652", "name": "Батырево", "areas": [], "utc_offset": "+03:00", "lat": 55.0675, "lng": 47.611111}, {"id": "7170", "parent_id": "1652", "name": "Бичурга-Баишево", "areas": [], "utc_offset": "+03:00", "lat": 54.760807, "lng": 47.308759}, {"id": "7121", "parent_id": "1652", "name": "Богатырево", "areas": [], "utc_offset": "+03:00", "lat": 55.850328, "lng": 47.287047}, {"id": "7015", "parent_id": "1652", "name": "Большая Выла", "areas": [], "utc_offset": "+03:00", "lat": 55.726639, "lng": 46.553725}, {"id": "7224", "parent_id": "1652", "name": "Большие Алгаши", "areas": [], "utc_offset": "+03:00", "lat": 55.36136, "lng": 46.453905}, {"id": "7144", "parent_id": "1652", "name": "Большие Катраси", "areas": [], "utc_offset": "+03:00", "lat": 56.065751, "lng": 47.127075}, {"id": "7200", "parent_id": "1652", "name": "Большие Яуши", "areas": [], "utc_offset": "+03:00", "lat": 55.640142, "lng": 47.064894}, {"id": "7173", "parent_id": "1652", "name": "Большое Шигаево", "areas": [], "utc_offset": "+03:00", "lat": 55.997285, "lng": 47.700389}, {"id": "7262", "parent_id": "1652", "name": "Большое Яниково", "areas": [], "utc_offset": "+03:00", "lat": 55.730274, "lng": 47.796536}, {"id": "3680", "parent_id": "1652", "name": "Большой Сундырь", "areas": [], "utc_offset": "+03:00", "lat": 56.108333, "lng": 46.743056}, {"id": "7004", "parent_id": "1652", "name": "Верхние Ачаки", "areas": [], "utc_offset": "+03:00", "lat": 55.812873, "lng": 46.346646}, {"id": "3676", "parent_id": "1652", "name": "Вурнары", "areas": [], "utc_offset": "+03:00", "lat": 55.489722, "lng": 46.966944}, {"id": "7114", "parent_id": "1652", "name": "Вутабоси", "areas": [], "utc_offset": "+03:00", "lat": 55.431075, "lng": 47.444495}, {"id": "7082", "parent_id": "1652", "name": "Егоркино", "areas": [], "utc_offset": "+03:00", "lat": 55.617047, "lng": 46.554237}, {"id": "7276", "parent_id": "1652", "name": "Еметкино", "areas": [], "utc_offset": "+03:00", "lat": 55.798034, "lng": 48.042566}, {"id": "7134", "parent_id": "1652", "name": "Ермошкино", "areas": [], "utc_offset": "+03:00", "lat": 55.66502, "lng": 46.92102}, {"id": "4217", "parent_id": "1652", "name": "Ибреси", "areas": [], "utc_offset": "+03:00", "lat": 55.301495, "lng": 47.036058}, {"id": "7279", "parent_id": "1652", "name": "Иваньково-Ленино", "areas": [], "utc_offset": "+03:00", "lat": 54.717282, "lng": 46.688167}, {"id": "7258", "parent_id": "1652", "name": "Испуханы", "areas": [], "utc_offset": "+03:00", "lat": 55.781028, "lng": 46.203544}, {"id": "7278", "parent_id": "1652", "name": "Ишаки", "areas": [], "utc_offset": "+03:00", "lat": 55.934215, "lng": 47.065855}, {"id": "4218", "parent_id": "1652", "name": "Ишлеи", "areas": [], "utc_offset": "+03:00", "lat": 56.048279, "lng": 47.094475}, {"id": "7208", "parent_id": "1652", "name": "Калинино", "areas": [], "utc_offset": "+03:00", "lat": 55.605521, "lng": 46.85087}, {"id": "1654", "parent_id": "1652", "name": "Канаш", "areas": [], "utc_offset": "+03:00", "lat": 55.505123, "lng": 47.489575}, {"id": "7074", "parent_id": "1652", "name": "Карабай-Шемурша", "areas": [], "utc_offset": "+03:00", "lat": 54.964938, "lng": 47.519998}, {"id": "7156", "parent_id": "1652", "name": "Карабаши", "areas": [], "utc_offset": "+03:00", "lat": 55.961022, "lng": 47.911951}, {"id": "7239", "parent_id": "1652", "name": "Карамышево (Чувашская Республика)", "areas": [], "utc_offset": "+03:00", "lat": 55.881818, "lng": 48.049753}, {"id": "7067", "parent_id": "1652", "name": "Кильдюшево", "areas": [], "utc_offset": "+03:00", "lat": 55.222991, "lng": 47.804728}, {"id": "7270", "parent_id": "1652", "name": "Киря", "areas": [], "utc_offset": "+03:00", "lat": 55.080931, "lng": 46.859557}, {"id": "7185", "parent_id": "1652", "name": "Климово (Чувашская Республика)", "areas": [], "utc_offset": "+03:00", "lat": 55.361078, "lng": 47.22341}, {"id": "7023", "parent_id": "1652", "name": "Ковали", "areas": [], "utc_offset": "+03:00", "lat": 55.679138, "lng": 48.05331}, {"id": "7059", "parent_id": "1652", "name": "Кожары", "areas": [], "utc_offset": "+03:00", "lat": 55.805877, "lng": 47.014328}, {"id": "1655", "parent_id": "1652", "name": "Козловка", "areas": [], "utc_offset": "+03:00", "lat": 55.832156, "lng": 48.26721}, {"id": "7104", "parent_id": "1652", "name": "Комсомолец (Чувашская Республика)", "areas": [], "utc_offset": "+03:00", "lat": 56.13992, "lng": 47.247731}, {"id": "3677", "parent_id": "1652", "name": "Комсомольское (Чувашская Республика)", "areas": [], "utc_offset": "+03:00", "lat": 55.263333, "lng": 47.524444}, {"id": "7087", "parent_id": "1652", "name": "Конар", "areas": [], "utc_offset": "+03:00", "lat": 55.862949, "lng": 47.708932}, {"id": "7107", "parent_id": "1652", "name": "Кошноруй", "areas": [], "utc_offset": "+03:00", "lat": 55.676961, "lng": 47.423169}, {"id": "3681", "parent_id": "1652", "name": "Красноармейское", "areas": [], "utc_offset": "+03:00", "lat": 55.767222, "lng": 47.169722}, {"id": "4219", "parent_id": "1652", "name": "Красные Четаи", "areas": [], "utc_offset": "+03:00", "lat": 55.696453, "lng": 46.159024}, {"id": "7167", "parent_id": "1652", "name": "Кувакино", "areas": [], "utc_offset": "+03:00", "lat": 54.983318, "lng": 46.407084}, {"id": "3698", "parent_id": "1652", "name": "Кугеси", "areas": [], "utc_offset": "+03:00", "lat": 56.028889, "lng": 47.295556}, {"id": "7201", "parent_id": "1652", "name": "Лащ-Таяба", "areas": [], "utc_offset": "+03:00", "lat": 55.02893, "lng": 47.99765}, {"id": "7029", "parent_id": "1652", "name": "Малая Таяба", "areas": [], "utc_offset": "+03:00", "lat": 55.217876, "lng": 47.962239}, {"id": "7280", "parent_id": "1652", "name": "Малое Янгорчино", "areas": [], "utc_offset": "+03:00", "lat": 55.903923, "lng": 47.306873}, {"id": "1656", "parent_id": "1652", "name": "Мариинский Посад", "areas": [], "utc_offset": "+03:00", "lat": 56.104239, "lng": 47.72062}, {"id": "7120", "parent_id": "1652", "name": "Междуречье (Чувашская Республика)", "areas": [], "utc_offset": "+03:00", "lat": 54.978633, "lng": 46.526021}, {"id": "7129", "parent_id": "1652", "name": "Можарки", "areas": [], "utc_offset": "+03:00", "lat": 55.472883, "lng": 47.821679}, {"id": "3675", "parent_id": "1652", "name": "Моргауши", "areas": [], "utc_offset": "+03:00", "lat": 55.964444, "lng": 46.765278}, {"id": "7094", "parent_id": "1652", "name": "Напольные Котяки", "areas": [], "utc_offset": "+03:00", "lat": 55.492911, "lng": 47.258184}, {"id": "7177", "parent_id": "1652", "name": "Нижние Мочары", "areas": [], "utc_offset": "+03:00", "lat": 55.936504, "lng": 46.409734}, {"id": "11660", "parent_id": "1652", "name": "Вторые Вурманкасы", "areas": [], "utc_offset": "+03:00", "lat": 55.917874, "lng": 47.381496}, {"id": "7190", "parent_id": "1652", "name": "Николаевское", "areas": [], "utc_offset": "+03:00", "lat": 55.782805, "lng": 46.397616}, {"id": "7119", "parent_id": "1652", "name": "Никулино", "areas": [], "utc_offset": "+03:00", "lat": 55.156024, "lng": 46.061511}, {"id": "4220", "parent_id": "1652", "name": "Новое Атлашево", "areas": [], "utc_offset": "+03:00", "lat": 56.014267, "lng": 47.553416}, {"id": "1657", "parent_id": "1652", "name": "Новочебоксарск", "areas": [], "utc_offset": "+03:00", "lat": 56.092673, "lng": 47.500539}, {"id": "7135", "parent_id": "1652", "name": "Новочелны-Сюрбеево", "areas": [], "utc_offset": "+03:00", "lat": 55.150057, "lng": 47.57988}, {"id": "4221", "parent_id": "1652", "name": "Новые Лапсары", "areas": [], "utc_offset": "+03:00", "lat": 56.070313, "lng": 47.215047}, {"id": "7116", "parent_id": "1652", "name": "Новые Мураты", "areas": [], "utc_offset": "+03:00", "lat": 55.188571, "lng": 47.309478}, {"id": "7264", "parent_id": "1652", "name": "Новые Шальтямы", "areas": [], "utc_offset": "+03:00", "lat": 55.361948, "lng": 47.488189}, {"id": "7024", "parent_id": "1652", "name": "Новые Шимкусы", "areas": [], "utc_offset": "+03:00", "lat": 55.156765, "lng": 47.766325}, {"id": "7127", "parent_id": "1652", "name": "Пандиково", "areas": [], "utc_offset": "+03:00", "lat": 55.756396, "lng": 46.121501}, {"id": "7168", "parent_id": "1652", "name": "Первое Чурашево", "areas": [], "utc_offset": "+03:00", "lat": 55.947429, "lng": 47.679889}, {"id": "7089", "parent_id": "1652", "name": "Первомайское (Чувашская Республика)", "areas": [], "utc_offset": "+03:00", "lat": 55.078762, "lng": 47.360143}, {"id": "7085", "parent_id": "1652", "name": "Пикшики", "areas": [], "utc_offset": "+03:00", "lat": 55.849969, "lng": 47.03966}, {"id": "7153", "parent_id": "1652", "name": "Полевые Бикшики", "areas": [], "utc_offset": "+03:00", "lat": 55.09017, "lng": 47.475334}, {"id": "4222", "parent_id": "1652", "name": "Порецкое", "areas": [], "utc_offset": "+03:00", "lat": 55.194429, "lng": 46.325293}, {"id": "7188", "parent_id": "1652", "name": "Сабанчино", "areas": [], "utc_offset": "+03:00", "lat": 55.157269, "lng": 47.903237}, {"id": "7216", "parent_id": "1652", "name": "Синьялы", "areas": [], "utc_offset": "+03:00", "lat": 56.080341, "lng": 47.364374}, {"id": "7213", "parent_id": "1652", "name": "Советское (Чувашская Республика)", "areas": [], "utc_offset": "+03:00", "lat": 55.858433, "lng": 46.546018}, {"id": "7079", "parent_id": "1652", "name": "Солдыбаево", "areas": [], "utc_offset": "+03:00", "lat": 55.868991, "lng": 48.135937}, {"id": "7227", "parent_id": "1652", "name": "Средние Кибечи", "areas": [], "utc_offset": "+03:00", "lat": 55.617469, "lng": 47.569199}, {"id": "7265", "parent_id": "1652", "name": "Старые Атаи", "areas": [], "utc_offset": "+03:00", "lat": 55.71272, "lng": 46.384761}, {"id": "7083", "parent_id": "1652", "name": "Старые Тиньгеши", "areas": [], "utc_offset": "+03:00", "lat": 55.835938, "lng": 46.495506}, {"id": "7140", "parent_id": "1652", "name": "Старые Чукалы", "areas": [], "utc_offset": "+03:00", "lat": 54.713782, "lng": 47.201015}, {"id": "7180", "parent_id": "1652", "name": "Стемасы", "areas": [], "utc_offset": "+03:00", "lat": 54.788735, "lng": 46.615925}, {"id": "7240", "parent_id": "1652", "name": "Сугуты", "areas": [], "utc_offset": "+03:00", "lat": 54.997647, "lng": 47.635081}, {"id": "7145", "parent_id": "1652", "name": "Тарханы", "areas": [], "utc_offset": "+03:00", "lat": 55.007328, "lng": 47.336661}, {"id": "7141", "parent_id": "1652", "name": "Тобурданово", "areas": [], "utc_offset": "+03:00", "lat": 55.361119, "lng": 47.592043}, {"id": "7075", "parent_id": "1652", "name": "Тойси", "areas": [], "utc_offset": "+03:00", "lat": 55.076123, "lng": 47.768993}, {"id": "7076", "parent_id": "1652", "name": "Торханы", "areas": [], "utc_offset": "+03:00", "lat": 55.560957, "lng": 46.577567}, {"id": "7257", "parent_id": "1652", "name": "Трехбалтаево", "areas": [], "utc_offset": "+03:00", "lat": 54.923585, "lng": 47.673125}, {"id": "7267", "parent_id": "1652", "name": "Тувси", "areas": [], "utc_offset": "+03:00", "lat": 55.911472, "lng": 47.488198}, {"id": "7102", "parent_id": "1652", "name": "Тузи-Сярмус", "areas": [], "utc_offset": "+03:00", "lat": 55.580019, "lng": 47.136112}, {"id": "7053", "parent_id": "1652", "name": "Турмыши", "areas": [], "utc_offset": "+03:00", "lat": 55.514835, "lng": 47.664708}, {"id": "7186", "parent_id": "1652", "name": "Тюмерево", "areas": [], "utc_offset": "+03:00", "lat": 55.438808, "lng": 47.775219}, {"id": "7022", "parent_id": "1652", "name": "Тюрлема", "areas": [], "utc_offset": "+03:00", "lat": 55.762135, "lng": 48.221807}, {"id": "3679", "parent_id": "1652", "name": "Урмары", "areas": [], "utc_offset": "+03:00", "lat": 55.683333, "lng": 47.95}, {"id": "7234", "parent_id": "1652", "name": "Ходары", "areas": [], "utc_offset": "+03:00", "lat": 55.585296, "lng": 46.615026}, {"id": "7055", "parent_id": "1652", "name": "Хыркасы", "areas": [], "utc_offset": "+03:00", "lat": 56.10553, "lng": 47.035501}, {"id": "1658", "parent_id": "1652", "name": "Цивильск", "areas": [], "utc_offset": "+03:00", "lat": 55.865266, "lng": 47.477671}, {"id": "7221", "parent_id": "1652", "name": "Чадукасы", "areas": [], "utc_offset": "+03:00", "lat": 55.858948, "lng": 47.173347}, {"id": "107", "parent_id": "1652", "name": "Чебоксары", "areas": [], "utc_offset": "+03:00", "lat": 56.104219, "lng": 47.259418}, {"id": "7269", "parent_id": "1652", "name": "Челкасы", "areas": [], "utc_offset": "+03:00", "lat": 55.702749, "lng": 47.911771}, {"id": "7205", "parent_id": "1652", "name": "Чепкас-Никольское", "areas": [], "utc_offset": "+03:00", "lat": 54.89882, "lng": 47.755905}, {"id": "7274", "parent_id": "1652", "name": "Чувашские Тимяши", "areas": [], "utc_offset": "+03:00", "lat": 55.288578, "lng": 47.165936}, {"id": "7169", "parent_id": "1652", "name": "Чурачики", "areas": [], "utc_offset": "+03:00", "lat": 55.726264, "lng": 47.432008}, {"id": "7206", "parent_id": "1652", "name": "Чутеево", "areas": [], "utc_offset": "+03:00", "lat": 55.392766, "lng": 47.828704}, {"id": "7261", "parent_id": "1652", "name": "Шемалаково", "areas": [], "utc_offset": "+03:00", "lat": 54.973207, "lng": 47.908627}, {"id": "4223", "parent_id": "1652", "name": "Шемурша", "areas": [], "utc_offset": "+03:00", "lat": 54.886725, "lng": 47.517106}, {"id": "7237", "parent_id": "1652", "name": "Шерауты", "areas": [], "utc_offset": "+03:00", "lat": 55.130271, "lng": 47.361446}, {"id": "7099", "parent_id": "1652", "name": "Шибылги", "areas": [], "utc_offset": "+03:00", "lat": 55.615339, "lng": 47.442914}, {"id": "7115", "parent_id": "1652", "name": "Шигали", "areas": [], "utc_offset": "+03:00", "lat": 55.555677, "lng": 48.03652}, {"id": "7286", "parent_id": "1652", "name": "Шимкусы", "areas": [], "utc_offset": "+03:00", "lat": 55.546185, "lng": 47.935128}, {"id": "4224", "parent_id": "1652", "name": "Шихазаны", "areas": [], "utc_offset": "+03:00", "lat": 55.561431, "lng": 47.383876}, {"id": "7191", "parent_id": "1652", "name": "Шоркистры", "areas": [], "utc_offset": "+03:00", "lat": 55.649327, "lng": 47.750659}, {"id": "7268", "parent_id": "1652", "name": "Шоршелы", "areas": [], "utc_offset": "+03:00", "lat": 56.006613, "lng": 47.592465}, {"id": "1659", "parent_id": "1652", "name": "Шумерля", "areas": [], "utc_offset": "+03:00", "lat": 55.497935, "lng": 46.416396}, {"id": "7091", "parent_id": "1652", "name": "Шумшеваши", "areas": [], "utc_offset": "+03:00", "lat": 55.787184, "lng": 46.562924}, {"id": "4225", "parent_id": "1652", "name": "Шыгырдан", "areas": [], "utc_offset": "+03:00", "lat": 55.048075, "lng": 47.554754}, {"id": "7048", "parent_id": "1652", "name": "Эльбарусово", "areas": [], "utc_offset": "+03:00", "lat": 55.969013, "lng": 47.788433}, {"id": "7225", "parent_id": "1652", "name": "Юнга", "areas": [], "utc_offset": "+03:00", "lat": 56.047851, "lng": 46.638194}, {"id": "4226", "parent_id": "1652", "name": "Юськасы", "areas": [], "utc_offset": "+03:00", "lat": 55.705513, "lng": 47.377912}, {"id": "1660", "parent_id": "1652", "name": "Ядрин", "areas": [], "utc_offset": "+03:00", "lat": 55.946529, "lng": 46.202941}, {"id": "3674", "parent_id": "1652", "name": "Яльчики", "areas": [], "utc_offset": "+03:00", "lat": 55.166667, "lng": 48.0}, {"id": "7195", "parent_id": "1652", "name": "Янгличи", "areas": [], "utc_offset": "+03:00", "lat": 55.438118, "lng": 47.292572}, {"id": "7132", "parent_id": "1652", "name": "Янгорчино", "areas": [], "utc_offset": "+03:00", "lat": 55.539217, "lng": 47.112639}, {"id": "4227", "parent_id": "1652", "name": "Янтиково", "areas": [], "utc_offset": "+03:00", "lat": 55.512291, "lng": 47.77847}, {"id": "7162", "parent_id": "1652", "name": "Яншихово-Норваши", "areas": [], "utc_offset": "+03:00", "lat": 55.562449, "lng": 47.642564}, {"id": "7005", "parent_id": "1652", "name": "Яншихово-Челлы", "areas": [], "utc_offset": "+03:00", "lat": 55.74674, "lng": 47.29382}, {"id": "7171", "parent_id": "1652", "name": "Яныши", "areas": [], "utc_offset": "+03:00", "lat": 55.926197, "lng": 46.957815}, {"id": "7192", "parent_id": "1652", "name": "Ярославка", "areas": [], "utc_offset": "+03:00", "lat": 55.991767, "lng": 46.609295}], "utc_offset": "+03:00", "lat": 56.1439, "lng": 47.2489}, {"id": "1192", "parent_id": "113", "name": "Забайкальский край", "areas": [{"id": "11379", "parent_id": "1192", "name": "Ага (Забайкальский край)", "areas": [], "utc_offset": "+09:00", "lat": 51.190874, "lng": 115.1679}, {"id": "11380", "parent_id": "1192", "name": "Ага-Хангил (Забайкальский край)", "areas": [], "utc_offset": "+09:00", "lat": 51.185195, "lng": 114.75375}, {"id": "216", "parent_id": "1192", "name": "Агинское (Забайкальский АО)", "areas": [], "utc_offset": "+09:00", "lat": 51.103662, "lng": 114.537849}, {"id": "11381", "parent_id": "1192", "name": "Адриановка (Забайкальский край)", "areas": [], "utc_offset": "+09:00", "lat": 51.564702, "lng": 114.516837}, {"id": "11382", "parent_id": "1192", "name": "Аксеново-Зиловское (Забайкальский край)", "areas": [], "utc_offset": "+09:00", "lat": 53.070863, "lng": 117.506071}, {"id": "5088", "parent_id": "1192", "name": "Акша (Забайкальский край)", "areas": [], "utc_offset": "+09:00", "lat": 50.28167, "lng": 113.28694}, {"id": "5089", "parent_id": "1192", "name": "Александровский Завод", "areas": [], "utc_offset": "+09:00", "lat": 50.92444, "lng": 117.93611}, {"id": "11383", "parent_id": "1192", "name": "Алеур (Забайкальский край)", "areas": [], "utc_offset": "+09:00", "lat": 52.549823, "lng": 117.044454}, {"id": "11384", "parent_id": "1192", "name": "Алханай (Забайкальский край)", "areas": [], "utc_offset": "+09:00", "lat": 50.730739, "lng": 113.470857}, {"id": "7309", "parent_id": "1192", "name": "Альбитуй", "areas": [], "utc_offset": "+09:00", "lat": 50.138647, "lng": 108.230957}, {"id": "7452", "parent_id": "1192", "name": "Амазар", "areas": [], "utc_offset": "+09:00", "lat": 53.857879, "lng": 120.867486}, {"id": "11385", "parent_id": "1192", "name": "Амитхаша (Забайкальский край)", "areas": [], "utc_offset": "+09:00", "lat": 51.082851, "lng": 114.469137}, {"id": "5106", "parent_id": "1192", "name": "Атамановка (Читинский район)", "areas": [], "utc_offset": "+09:00", "lat": 51.93333, "lng": 113.63333}, {"id": "7454", "parent_id": "1192", "name": "Бада", "areas": [], "utc_offset": "+09:00", "lat": 51.388706, "lng": 109.863079}, {"id": "1193", "parent_id": "1192", "name": "Балей", "areas": [], "utc_offset": "+09:00", "lat": 51.589058, "lng": 116.660517}, {"id": "7423", "parent_id": "1192", "name": "Баляга", "areas": [], "utc_offset": "+09:00", "lat": 51.151733, "lng": 108.917979}, {"id": "11386", "parent_id": "1192", "name": "Беклемишево (Забайкальский край)", "areas": [], "utc_offset": "+09:00", "lat": 52.119602, "lng": 112.675641}, {"id": "11387", "parent_id": "1192", "name": "Билитуй (Забайкальский край)", "areas": [], "utc_offset": "+09:00", "lat": 49.826168, "lng": 117.093071}, {"id": "11388", "parent_id": "1192", "name": "Большая Тура (Забайкальский край)", "areas": [], "utc_offset": "+09:00", "lat": 51.631395, "lng": 114.08702}, {"id": "11389", "parent_id": "1192", "name": "Боржигантай (Забайкальский край)", "areas": [], "utc_offset": "+09:00", "lat": 51.212794, "lng": 115.849164}, {"id": "1194", "parent_id": "1192", "name": "Борзя", "areas": [], "utc_offset": "+09:00", "lat": 50.393107, "lng": 116.531605}, {"id": "7334", "parent_id": "1192", "name": "Букачача", "areas": [], "utc_offset": "+09:00", "lat": 52.98314, "lng": 116.909114}, {"id": "11390", "parent_id": "1192", "name": "Бырка (Забайкальский край)", "areas": [], "utc_offset": "+09:00", "lat": 50.647321, "lng": 118.547084}, {"id": "5099", "parent_id": "1192", "name": "Верх-Усугли", "areas": [], "utc_offset": "+09:00", "lat": 52.68333, "lng": 115.18333}, {"id": "7450", "parent_id": "1192", "name": "Верх-Чита", "areas": [], "utc_offset": "+09:00", "lat": 52.233105, "lng": 113.509853}, {"id": "5112", "parent_id": "1192", "name": "Вершино-Дарасунский", "areas": [], "utc_offset": "+09:00", "lat": 52.35833, "lng": 115.5625}, {"id": "11391", "parent_id": "1192", "name": "Вершино-Шахтаминский (Забайкальский край)", "areas": [], "utc_offset": "+09:00", "lat": 51.293519, "lng": 117.894934}, {"id": "6952", "parent_id": "1192", "name": "Вершино-Шахтаминское", "areas": [], "utc_offset": "+09:00", "lat": 51.298333, "lng": 117.884167}, {"id": "5090", "parent_id": "1192", "name": "Газимурский Завод", "areas": [], "utc_offset": "+09:00", "lat": 51.54472, "lng": 118.34222}, {"id": "5104", "parent_id": "1192", "name": "Горный (Забайкальский край)", "areas": [], "utc_offset": "+09:00", "lat": 51.55, "lng": 113.03333}, {"id": "11392", "parent_id": "1192", "name": "Горный Зерентуй (Забайкальский край)", "areas": [], "utc_offset": "+09:00", "lat": 51.213268, "lng": 119.520938}, {"id": "11393", "parent_id": "1192", "name": "Гунэй (Забайкальский край)", "areas": [], "utc_offset": "+09:00", "lat": 50.51935, "lng": 114.556507}, {"id": "7294", "parent_id": "1192", "name": "Давенда", "areas": [], "utc_offset": "+09:00", "lat": 53.553796, "lng": 119.317686}, {"id": "5113", "parent_id": "1192", "name": "Дарасун (Забайкальский край)", "areas": [], "utc_offset": "+09:00", "lat": 51.64972, "lng": 113.96861}, {"id": "11394", "parent_id": "1192", "name": "Даурия (Забайкальский край)", "areas": [], "utc_offset": "+09:00", "lat": 49.923915, "lng": 116.849214}, {"id": "5111", "parent_id": "1192", "name": "Домна (Забайкальский край)", "areas": [], "utc_offset": "+09:00", "lat": 51.89583, "lng": 113.15972}, {"id": "7343", "parent_id": "1192", "name": "Досатуй", "areas": [], "utc_offset": "+09:00", "lat": 50.393245, "lng": 118.624159}, {"id": "7456", "parent_id": "1192", "name": "Дровяная", "areas": [], "utc_offset": "+09:00", "lat": 51.579715, "lng": 113.04581}, {"id": "5114", "parent_id": "1192", "name": "Дульдурга", "areas": [], "utc_offset": "+09:00", "lat": 50.68417, "lng": 113.592008}, {"id": "11395", "parent_id": "1192", "name": "Дунаево (Забайкальский край)", "areas": [], "utc_offset": "+09:00", "lat": 52.069169, "lng": 117.051649}, {"id": "7291", "parent_id": "1192", "name": "Жиндо", "areas": [], "utc_offset": "+09:00", "lat": 49.944476, "lng": 107.984064}, {"id": "7364", "parent_id": "1192", "name": "Жипхеген", "areas": [], "utc_offset": "+09:00", "lat": 51.456051, "lng": 110.169872}, {"id": "7336", "parent_id": "1192", "name": "Жирекен", "areas": [], "utc_offset": "+09:00", "lat": 52.819349, "lng": 117.290314}, {"id": "2399", "parent_id": "1192", "name": "Забайкальск", "areas": [], "utc_offset": "+09:00", "lat": 49.6644, "lng": 117.320742}, {"id": "11396", "parent_id": "1192", "name": "Засопка (Забайкальский край)", "areas": [], "utc_offset": "+09:00", "lat": 52.011058, "lng": 113.415062}, {"id": "7297", "parent_id": "1192", "name": "Золотореченск", "areas": [], "utc_offset": "+09:00", "lat": 51.054511, "lng": 116.743051}, {"id": "11402", "parent_id": "1192", "name": "Зугалай (Забайкальский край)", "areas": [], "utc_offset": "+09:00", "lat": 51.467145, "lng": 115.02337}, {"id": "11403", "parent_id": "1192", "name": "Зуткулей (Забайкальский край)", "areas": [], "utc_offset": "+09:00", "lat": 50.656099, "lng": 114.190318}, {"id": "11404", "parent_id": "1192", "name": "Зюльзя (Забайкальский край)", "areas": [], "utc_offset": "+09:00", "lat": 52.532456, "lng": 116.204089}, {"id": "11405", "parent_id": "1192", "name": "Ингода (Забайкальский край)", "areas": [], "utc_offset": "+09:00", "lat": 51.851118, "lng": 113.101056}, {"id": "11406", "parent_id": "1192", "name": "Кадахта (Забайкальский край)", "areas": [], "utc_offset": "+09:00", "lat": 51.614833, "lng": 114.258563}, {"id": "6939", "parent_id": "1192", "name": "Кадая", "areas": [], "utc_offset": "+09:00", "lat": 50.927778, "lng": 119.3}, {"id": "11407", "parent_id": "1192", "name": "Казаново (Забайкальский край)", "areas": [], "utc_offset": "+09:00", "lat": 51.772936, "lng": 115.863582}, {"id": "11408", "parent_id": "1192", "name": "Калангуй (Забайкальский край)", "areas": [], "utc_offset": "+09:00", "lat": 51.012789, "lng": 116.519155}, {"id": "5091", "parent_id": "1192", "name": "Калга", "areas": [], "utc_offset": "+09:00", "lat": 50.926778, "lng": 118.90115}, {"id": "4631", "parent_id": "1192", "name": "Карымское", "areas": [], "utc_offset": "+09:00", "lat": 51.625575, "lng": 114.339007}, {"id": "7436", "parent_id": "1192", "name": "Кличка", "areas": [], "utc_offset": "+09:00", "lat": 50.443696, "lng": 117.996291}, {"id": "7406", "parent_id": "1192", "name": "Ключевский", "areas": [], "utc_offset": "+09:00", "lat": 53.533945, "lng": 119.451975}, {"id": "11409", "parent_id": "1192", "name": "Ковыли (Забайкальский край)", "areas": [], "utc_offset": "+09:00", "lat": 50.372619, "lng": 117.615567}, {"id": "11458", "parent_id": "1192", "name": "Шишкино (Забайкальский край)", "areas": [], "utc_offset": "+09:00", "lat": 52.309464, "lng": 113.581826}, {"id": "5110", "parent_id": "1192", "name": "Кокуй (Забайкальский край)", "areas": [], "utc_offset": "+09:00", "lat": 52.2, "lng": 117.55}, {"id": "1195", "parent_id": "1192", "name": "Краснокаменск", "areas": [], "utc_offset": "+09:00", "lat": 50.091831, "lng": 118.045035}, {"id": "5092", "parent_id": "1192", "name": "Красный Чикой", "areas": [], "utc_offset": "+09:00", "lat": 50.36361, "lng": 108.75667}, {"id": "7305", "parent_id": "1192", "name": "Ксеньевка", "areas": [], "utc_offset": "+09:00", "lat": 53.558412, "lng": 118.7246}, {"id": "7397", "parent_id": "1192", "name": "Куанда", "areas": [], "utc_offset": "+09:00", "lat": 56.326567, "lng": 116.080256}, {"id": "11410", "parent_id": "1192", "name": "Кункур (Забайкальский край)", "areas": [], "utc_offset": "+09:00", "lat": 50.578595, "lng": 115.167514}, {"id": "7358", "parent_id": "1192", "name": "Курорт-Дарасун", "areas": [], "utc_offset": "+09:00", "lat": 51.19793, "lng": 113.722187}, {"id": "11411", "parent_id": "1192", "name": "Кусоча (Забайкальский край)", "areas": [], "utc_offset": "+09:00", "lat": 50.702876, "lng": 115.638852}, {"id": "5093", "parent_id": "1192", "name": "Кыра", "areas": [], "utc_offset": "+09:00", "lat": 49.57806, "lng": 111.97472}, {"id": "11412", "parent_id": "1192", "name": "Лесной Городок (Забайкальский край)", "areas": [], "utc_offset": "+09:00", "lat": 51.73397, "lng": 113.06896}, {"id": "11413", "parent_id": "1192", "name": "Линево Озеро (Забайкальский край)", "areas": [], "utc_offset": "+09:00", "lat": 51.36398, "lng": 110.648162}, {"id": "7355", "parent_id": "1192", "name": "Маккавеево", "areas": [], "utc_offset": "+09:00", "lat": 51.752942, "lng": 113.955354}, {"id": "7392", "parent_id": "1192", "name": "Малета", "areas": [], "utc_offset": "+09:00", "lat": 50.837881, "lng": 108.417016}, {"id": "7287", "parent_id": "1192", "name": "Мангут", "areas": [], "utc_offset": "+09:00", "lat": 49.695882, "lng": 112.672713}, {"id": "11414", "parent_id": "1192", "name": "Маргуцек (Забайкальский край)", "areas": [], "utc_offset": "+09:00", "lat": 50.403529, "lng": 117.895635}, {"id": "11415", "parent_id": "1192", "name": "Мирная (Забайкальский край)", "areas": [], "utc_offset": "+09:00", "lat": 50.755311, "lng": 116.056316}, {"id": "11416", "parent_id": "1192", "name": "Могзон (Забайкальский край)", "areas": [], "utc_offset": "+09:00", "lat": 51.736815, "lng": 111.962118}, {"id": "5094", "parent_id": "1192", "name": "Могойтуй", "areas": [], "utc_offset": "+09:00", "lat": 51.28472, "lng": 114.93083}, {"id": "1196", "parent_id": "1192", "name": "Могоча", "areas": [], "utc_offset": "+09:00", "lat": 53.736206, "lng": 119.76608}, {"id": "11417", "parent_id": "1192", "name": "Молодежный (Забайкальский край)", "areas": [], "utc_offset": "+09:00", "lat": 50.283739, "lng": 118.990672}, {"id": "1197", "parent_id": "1192", "name": "Нерчинск", "areas": [], "utc_offset": "+09:00", "lat": 51.994497, "lng": 116.555658}, {"id": "5095", "parent_id": "1192", "name": "Нерчинский Завод", "areas": [], "utc_offset": "+09:00", "lat": 51.30778, "lng": 119.6175}, {"id": "5097", "parent_id": "1192", "name": "Нижний Цасучей", "areas": [], "utc_offset": "+09:00", "lat": 50.50833, "lng": 115.12361}, {"id": "7403", "parent_id": "1192", "name": "Николаевское (Забайкальский край)", "areas": [], "utc_offset": "+09:00", "lat": 51.050876, "lng": 111.771972}, {"id": "7303", "parent_id": "1192", "name": "Новая Кука", "areas": [], "utc_offset": "+09:00", "lat": 51.793579, "lng": 113.063363}, {"id": "2691", "parent_id": "1192", "name": "Новая Чара", "areas": [], "utc_offset": "+09:00", "lat": 56.797748, "lng": 118.271076}, {"id": "5107", "parent_id": "1192", "name": "Новокручининский", "areas": [], "utc_offset": "+09:00", "lat": 51.76944, "lng": 113.79889}, {"id": "6940", "parent_id": "1192", "name": "Новоорловск", "areas": [], "utc_offset": "+09:00", "lat": 51.068889, "lng": 114.746389}, {"id": "6941", "parent_id": "1192", "name": "Новопавловка", "areas": [], "utc_offset": "+09:00", "lat": 51.216667, "lng": 109.233333}, {"id": "11418", "parent_id": "1192", "name": "Новоцурухайтуй (Забайкальский край)", "areas": [], "utc_offset": "+09:00", "lat": 50.392263, "lng": 119.116256}, {"id": "6896", "parent_id": "1192", "name": "Новоширокинский", "areas": [], "utc_offset": "+09:00", "lat": 51.57, "lng": 118.65}, {"id": "5096", "parent_id": "1192", "name": "Оловянная", "areas": [], "utc_offset": "+09:00", "lat": 50.94556, "lng": 115.57833}, {"id": "11419", "parent_id": "1192", "name": "Ононское (Забайкальский край)", "areas": [], "utc_offset": "+09:00", "lat": 51.476453, "lng": 115.953899}, {"id": "11420", "parent_id": "1192", "name": "Орловский (Забайкальский край)", "areas": [], "utc_offset": "+09:00", "lat": 51.037059, "lng": 114.849906}, {"id": "11421", "parent_id": "1192", "name": "Ортуй (Забайкальский край)", "areas": [], "utc_offset": "+09:00", "lat": 50.815452, "lng": 115.634431}, {"id": "5105", "parent_id": "1192", "name": "Первомайский (Забайкальский край)", "areas": [], "utc_offset": "+09:00", "lat": 51.6675, "lng": 115.62556}, {"id": "1198", "parent_id": "1192", "name": "Петровск-Забайкальский", "areas": [], "utc_offset": "+09:00", "lat": 51.274895, "lng": 108.846779}, {"id": "5098", "parent_id": "1192", "name": "Приаргунск", "areas": [], "utc_offset": "+09:00", "lat": 50.36, "lng": 119.08}, {"id": "11422", "parent_id": "1192", "name": "Приисковый (Забайкальский край)", "areas": [], "utc_offset": "+09:00", "lat": 51.919271, "lng": 116.622587}, {"id": "11423", "parent_id": "1192", "name": "Сахюрта (Забайкальский край)", "areas": [], "utc_offset": "+09:00", "lat": 51.027078, "lng": 114.223591}, {"id": "6942", "parent_id": "1192", "name": "Сбега", "areas": [], "utc_offset": "+09:00", "lat": 53.319444, "lng": 118.516111}, {"id": "11424", "parent_id": "1192", "name": "Семиозерный (Забайкальский край)", "areas": [], "utc_offset": "+09:00", "lat": 53.710734, "lng": 120.369379}, {"id": "11425", "parent_id": "1192", "name": "Смоленка (Забайкальский край)", "areas": [], "utc_offset": "+09:00", "lat": 52.142799, "lng": 113.513033}, {"id": "11426", "parent_id": "1192", "name": "Сохондо (Забайкальский край)", "areas": [], "utc_offset": "+09:00", "lat": 51.816039, "lng": 112.529297}, {"id": "1199", "parent_id": "1192", "name": "Сретенск", "areas": [], "utc_offset": "+09:00", "lat": 52.257326, "lng": 117.705457}, {"id": "11427", "parent_id": "1192", "name": "Степь (Забайкальский край)", "areas": [], "utc_offset": "+09:00", "lat": 51.004259, "lng": 115.394698}, {"id": "11428", "parent_id": "1192", "name": "Судунтуй (Забайкальский край)", "areas": [], "utc_offset": "+09:00", "lat": 50.760126, "lng": 114.465382}, {"id": "11429", "parent_id": "1192", "name": "Тарбагатай (Забайкальский край)", "areas": [], "utc_offset": "+09:00", "lat": 51.177437, "lng": 109.09793}, {"id": "11430", "parent_id": "1192", "name": "Токчин (Забайкальский край)", "areas": [], "utc_offset": "+09:00", "lat": 50.511667, "lng": 114.130833}, {"id": "7399", "parent_id": "1192", "name": "Тупик", "areas": [], "utc_offset": "+09:00", "lat": 54.428211, "lng": 119.942895}, {"id": "11431", "parent_id": "1192", "name": "Тыргетуй (Забайкальский край)", "areas": [], "utc_offset": "+09:00", "lat": 51.445, "lng": 113.792222}, {"id": "11432", "parent_id": "1192", "name": "Угдан (Забайкальский край)", "areas": [], "utc_offset": "+09:00", "lat": 52.158797, "lng": 113.453465}, {"id": "11433", "parent_id": "1192", "name": "Узон (Забайкальский край)", "areas": [], "utc_offset": "+09:00", "lat": 50.582742, "lng": 113.603071}, {"id": "5100", "parent_id": "1192", "name": "Улёты", "areas": [], "utc_offset": "+09:00", "lat": 51.35611, "lng": 112.48278}, {"id": "11434", "parent_id": "1192", "name": "Ундино-Поселье (Забайкальский край)", "areas": [], "utc_offset": "+09:00", "lat": 51.424022, "lng": 116.23836}, {"id": "11444", "parent_id": "1192", "name": "Урда-Ага (Забайкальский край)", "areas": [], "utc_offset": "+09:00", "lat": 51.003619, "lng": 114.286698}, {"id": "7301", "parent_id": "1192", "name": "Урлук", "areas": [], "utc_offset": "+09:00", "lat": 50.047222, "lng": 107.891465}, {"id": "7298", "parent_id": "1192", "name": "Урульга", "areas": [], "utc_offset": "+09:00", "lat": 51.768377, "lng": 114.806247}, {"id": "6938", "parent_id": "1192", "name": "Усть-Карск", "areas": [], "utc_offset": "+09:00", "lat": 52.707778, "lng": 118.807778}, {"id": "11445", "parent_id": "1192", "name": "Утан (Забайкальский край)", "areas": [], "utc_offset": "+09:00", "lat": 52.574294, "lng": 116.983198}, {"id": "11446", "parent_id": "1192", "name": "Ушарбай (Забайкальский край)", "areas": [], "utc_offset": "+09:00", "lat": 51.398467, "lng": 114.834131}, {"id": "11447", "parent_id": "1192", "name": "Хада-Булак (Забайкальский край)", "areas": [], "utc_offset": "+09:00", "lat": 50.643917, "lng": 116.296346}, {"id": "11448", "parent_id": "1192", "name": "Харагун (Забайкальский край)", "areas": [], "utc_offset": "+09:00", "lat": 51.553346, "lng": 111.17868}, {"id": "11449", "parent_id": "1192", "name": "Харанор (Забайкальский край)", "areas": [], "utc_offset": "+09:00", "lat": 50.115305, "lng": 116.671078}, {"id": "11450", "parent_id": "1192", "name": "Хара-Шибирь (Забайкальский край)", "areas": [], "utc_offset": "+09:00", "lat": 51.533321, "lng": 115.191813}, {"id": "1200", "parent_id": "1192", "name": "Хилок", "areas": [], "utc_offset": "+09:00", "lat": 51.363434, "lng": 110.459048}, {"id": "5039", "parent_id": "1192", "name": "Холбон", "areas": [], "utc_offset": "+09:00", "lat": 51.902742, "lng": 116.24392}, {"id": "7356", "parent_id": "1192", "name": "Хохотуй", "areas": [], "utc_offset": "+09:00", "lat": 51.284929, "lng": 109.564461}, {"id": "11451", "parent_id": "1192", "name": "Хушенга (Забайкальский край)", "areas": [], "utc_offset": "+09:00", "lat": 51.433586, "lng": 110.922821}, {"id": "11452", "parent_id": "1192", "name": "Цаган-Ола (Забайкальский край)", "areas": [], "utc_offset": "+09:00", "lat": 51.358834, "lng": 115.477091}, {"id": "11453", "parent_id": "1192", "name": "Цаган-Челутай (Забайкальский край)", "areas": [], "utc_offset": "+09:00", "lat": 51.070633, "lng": 115.085731}, {"id": "11454", "parent_id": "1192", "name": "Целинный (Забайкальский край)", "areas": [], "utc_offset": "+09:00", "lat": 50.264868, "lng": 118.114249}, {"id": "11455", "parent_id": "1192", "name": "Цокто-Хангил (Забайкальский край)", "areas": [], "utc_offset": "+09:00", "lat": 50.905641, "lng": 114.624545}, {"id": "7333", "parent_id": "1192", "name": "Чара", "areas": [], "utc_offset": "+09:00", "lat": 56.901725, "lng": 118.259093}, {"id": "5101", "parent_id": "1192", "name": "Чернышевск", "areas": [], "utc_offset": "+09:00", "lat": 52.53333, "lng": 117.0}, {"id": "11456", "parent_id": "1192", "name": "Чиндалей (Забайкальский край)", "areas": [], "utc_offset": "+09:00", "lat": 50.568458, "lng": 113.898724}, {"id": "106", "parent_id": "1192", "name": "Чита", "areas": [], "utc_offset": "+09:00", "lat": 52.033929, "lng": 113.499396}, {"id": "11457", "parent_id": "1192", "name": "Шара-Горохон (Забайкальский край)", "areas": [], "utc_offset": "+09:00", "lat": 51.401159, "lng": 113.878917}, {"id": "5102", "parent_id": "1192", "name": "Шелопугино (Забайкальский край)", "areas": [], "utc_offset": "+09:00", "lat": 51.65028, "lng": 117.56167}, {"id": "5103", "parent_id": "1192", "name": "Шерловая Гора", "areas": [], "utc_offset": "+09:00", "lat": 50.537333, "lng": 116.340806}, {"id": "1201", "parent_id": "1192", "name": "Шилка", "areas": [], "utc_offset": "+09:00", "lat": 51.884949, "lng": 116.005022}, {"id": "7391", "parent_id": "1192", "name": "Широкая", "areas": [], "utc_offset": "+09:00", "lat": 51.599496, "lng": 118.693186}, {"id": "11077", "parent_id": "1192", "name": "Ягодный (Забайкальский край)", "areas": [], "utc_offset": "+09:00", "lat": 51.902778, "lng": 112.494722}, {"id": "5109", "parent_id": "1192", "name": "Ясная (Забайкальский край)", "areas": [], "utc_offset": "+09:00", "lat": 50.83056, "lng": 115.79861}, {"id": "5108", "parent_id": "1192", "name": "Ясногорск (Забайкальский край)", "areas": [], "utc_offset": "+09:00", "lat": 50.86667, "lng": 115.68333}], "utc_offset": "+09:00", "lat": 52.0339, "lng": 113.4994}, {"id": "1124", "parent_id": "113", "name": "Иркутская область", "areas": [{"id": "7419", "parent_id": "1124", "name": "Азей", "areas": [], "utc_offset": "+08:00", "lat": 54.50911, "lng": 100.765849}, {"id": "7449", "parent_id": "1124", "name": "Алгатуй", "areas": [], "utc_offset": "+08:00", "lat": 54.395563, "lng": 100.19126}, {"id": "4854", "parent_id": "1124", "name": "Алексеевск", "areas": [], "utc_offset": "+08:00", "lat": 57.83821, "lng": 108.351169}, {"id": "1125", "parent_id": "1124", "name": "Алзамай", "areas": [], "utc_offset": "+08:00", "lat": 55.541623, "lng": 98.643161}, {"id": "1126", "parent_id": "1124", "name": "Ангарск", "areas": [], "utc_offset": "+08:00", "lat": 52.540608, "lng": 103.900077}, {"id": "7340", "parent_id": "1124", "name": "Артемовский (Иркутская область)", "areas": [], "utc_offset": "+08:00", "lat": 58.207758, "lng": 114.636789}, {"id": "7377", "parent_id": "1124", "name": "Бадар", "areas": [], "utc_offset": "+08:00", "lat": 54.397864, "lng": 100.59728}, {"id": "1127", "parent_id": "1124", "name": "Байкальск", "areas": [], "utc_offset": "+08:00", "lat": 51.518774, "lng": 104.124722}, {"id": "11487", "parent_id": "1124", "name": "Баклаши", "areas": [], "utc_offset": "+08:00", "lat": 52.225758, "lng": 104.048922}, {"id": "4855", "parent_id": "1124", "name": "Балаганск", "areas": [], "utc_offset": "+08:00", "lat": 54.008559, "lng": 103.050094}, {"id": "7420", "parent_id": "1124", "name": "Балахнинский", "areas": [], "utc_offset": "+08:00", "lat": 58.010417, "lng": 114.276421}, {"id": "6249", "parent_id": "1124", "name": "Баяндай", "areas": [], "utc_offset": "+08:00", "lat": 53.04, "lng": 105.3}, {"id": "4856", "parent_id": "1124", "name": "Белореченский", "areas": [], "utc_offset": "+08:00", "lat": 52.813618, "lng": 103.525833}, {"id": "7446", "parent_id": "1124", "name": "Березняки", "areas": [], "utc_offset": "+08:00", "lat": 56.936872, "lng": 103.591661}, {"id": "1128", "parent_id": "1124", "name": "Бирюсинск", "areas": [], "utc_offset": "+08:00", "lat": 55.963383, "lng": 97.822834}, {"id": "1129", "parent_id": "1124", "name": "Бодайбо", "areas": [], "utc_offset": "+08:00", "lat": 57.852118, "lng": 114.198968}, {"id": "7442", "parent_id": "1124", "name": "Большая Речка", "areas": [], "utc_offset": "+08:00", "lat": 51.951049, "lng": 104.738693}, {"id": "11849", "parent_id": "1124", "name": "Большое Голоустное", "areas": [], "utc_offset": "+08:00", "lat": 52.038539, "lng": 105.409097}, {"id": "4857", "parent_id": "1124", "name": "Большой Луг", "areas": [], "utc_offset": "+08:00", "lat": 52.065576, "lng": 104.081863}, {"id": "4858", "parent_id": "1124", "name": "Бохан", "areas": [], "utc_offset": "+08:00", "lat": 53.153055, "lng": 103.778727}, {"id": "1130", "parent_id": "1124", "name": "Братск", "areas": [], "utc_offset": "+08:00", "lat": 56.155651, "lng": 101.576434}, {"id": "7393", "parent_id": "1124", "name": "Будагово", "areas": [], "utc_offset": "+08:00", "lat": 54.626751, "lng": 100.130426}, {"id": "6657", "parent_id": "1124", "name": "Введенщина", "areas": [], "utc_offset": "+08:00", "lat": 52.207222, "lng": 103.943611}, {"id": "6746", "parent_id": "1124", "name": "Верхнемарково", "areas": [], "utc_offset": "+08:00", "lat": 57.325556, "lng": 107.023056}, {"id": "7351", "parent_id": "1124", "name": "Видим", "areas": [], "utc_offset": "+08:00", "lat": 56.404468, "lng": 103.108979}, {"id": "1131", "parent_id": "1124", "name": "Вихоревка", "areas": [], "utc_offset": "+08:00", "lat": 56.1172, "lng": 101.17}, {"id": "4864", "parent_id": "1124", "name": "Гидростроитель", "areas": [], "utc_offset": "+08:00", "lat": 56.283729, "lng": 101.881143}, {"id": "11989", "parent_id": "1124", "name": "Грановщина", "areas": [], "utc_offset": "+08:00", "lat": 52.462569, "lng": 104.292626}, {"id": "7408", "parent_id": "1124", "name": "Гуран", "areas": [], "utc_offset": "+08:00", "lat": 54.761446, "lng": 100.641998}, {"id": "11572", "parent_id": "1124", "name": "Дзержинск (Иркутская область)", "areas": [], "utc_offset": "+08:00", "lat": 52.278233, "lng": 104.391656}, {"id": "4859", "parent_id": "1124", "name": "Еланцы", "areas": [], "utc_offset": "+08:00", "lat": 52.800297, "lng": 106.402768}, {"id": "7311", "parent_id": "1124", "name": "Ербогачен", "areas": [], "utc_offset": "+08:00", "lat": 61.274897, "lng": 108.006495}, {"id": "1132", "parent_id": "1124", "name": "Железногорск-Илимский", "areas": [], "utc_offset": "+08:00", "lat": 56.584868, "lng": 104.114409}, {"id": "4860", "parent_id": "1124", "name": "Железнодорожный (Иркутская область)", "areas": [], "utc_offset": "+08:00", "lat": 52.674007, "lng": 103.750304}, {"id": "4861", "parent_id": "1124", "name": "Жигалово", "areas": [], "utc_offset": "+08:00", "lat": 54.808976, "lng": 105.159832}, {"id": "7400", "parent_id": "1124", "name": "Забитуй", "areas": [], "utc_offset": "+08:00", "lat": 53.274487, "lng": 102.828956}, {"id": "3716", "parent_id": "1124", "name": "Залари", "areas": [], "utc_offset": "+08:00", "lat": 53.558333, "lng": 102.505833}, {"id": "17478", "parent_id": "1124", "name": "Запань", "areas": [], "utc_offset": "+08:00", "lat": 55.970741, "lng": 97.628276}, {"id": "1133", "parent_id": "1124", "name": "Зима", "areas": [], "utc_offset": "+08:00", "lat": 53.92072, "lng": 102.049146}, {"id": "7386", "parent_id": "1124", "name": "Икей", "areas": [], "utc_offset": "+08:00", "lat": 54.189487, "lng": 100.07791}, {"id": "35", "parent_id": "1124", "name": "Иркутск", "areas": [], "utc_offset": "+08:00", "lat": 52.290345, "lng": 104.255253}, {"id": "7418", "parent_id": "1124", "name": "Каразей", "areas": [], "utc_offset": "+08:00", "lat": 54.356251, "lng": 101.116749}, {"id": "7362", "parent_id": "1124", "name": "Карымск", "areas": [], "utc_offset": "+08:00", "lat": 54.102987, "lng": 101.84062}, {"id": "4862", "parent_id": "1124", "name": "Качуг", "areas": [], "utc_offset": "+08:00", "lat": 53.960338, "lng": 105.892498}, {"id": "4863", "parent_id": "1124", "name": "Квиток", "areas": [], "utc_offset": "+08:00", "lat": 56.078352, "lng": 98.480355}, {"id": "7324", "parent_id": "1124", "name": "Кимильтей", "areas": [], "utc_offset": "+08:00", "lat": 54.133269, "lng": 101.978449}, {"id": "1134", "parent_id": "1124", "name": "Киренск", "areas": [], "utc_offset": "+08:00", "lat": 57.775747, "lng": 108.110861}, {"id": "4865", "parent_id": "1124", "name": "Куйтун", "areas": [], "utc_offset": "+08:00", "lat": 54.323881, "lng": 101.508208}, {"id": "4866", "parent_id": "1124", "name": "Култук", "areas": [], "utc_offset": "+08:00", "lat": 51.725458, "lng": 103.709296}, {"id": "7459", "parent_id": "1124", "name": "Кундуй", "areas": [], "utc_offset": "+08:00", "lat": 54.344607, "lng": 101.264118}, {"id": "4867", "parent_id": "1124", "name": "Кутулик", "areas": [], "utc_offset": "+08:00", "lat": 53.344027, "lng": 102.793778}, {"id": "4868", "parent_id": "1124", "name": "Лесогорск", "areas": [], "utc_offset": "+08:00", "lat": 56.045961, "lng": 99.521242}, {"id": "7329", "parent_id": "1124", "name": "Листвянка", "areas": [], "utc_offset": "+08:00", "lat": 51.85999, "lng": 104.863191}, {"id": "4869", "parent_id": "1124", "name": "Магистральный", "areas": [], "utc_offset": "+08:00", "lat": 56.169839, "lng": 107.438804}, {"id": "4870", "parent_id": "1124", "name": "Мама", "areas": [], "utc_offset": "+08:00", "lat": 58.306136, "lng": 112.906257}, {"id": "7431", "parent_id": "1124", "name": "Мамакан", "areas": [], "utc_offset": "+08:00", "lat": 57.81762, "lng": 114.012352}, {"id": "4871", "parent_id": "1124", "name": "Маркова", "areas": [], "utc_offset": "+08:00", "lat": 52.211103, "lng": 104.207906}, {"id": "4872", "parent_id": "1124", "name": "Мегет", "areas": [], "utc_offset": "+08:00", "lat": 52.419574, "lng": 104.052677}, {"id": "4873", "parent_id": "1124", "name": "Михайловка (Иркутская область)", "areas": [], "utc_offset": "+08:00", "lat": 52.956073, "lng": 103.291615}, {"id": "17489", "parent_id": "1124", "name": "Мамоны (Иркутская область)", "areas": [], "utc_offset": "+08:00", "lat": 52.301936, "lng": 104.155911}, {"id": "4874", "parent_id": "1124", "name": "Мишелевка", "areas": [], "utc_offset": "+08:00", "lat": 52.853295, "lng": 103.170289}, {"id": "11980", "parent_id": "1124", "name": "Молодёжный (Иркутская область)", "areas": [], "utc_offset": "+08:00", "lat": 52.228611, "lng": 104.415}, {"id": "1135", "parent_id": "1124", "name": "Нижнеудинск", "areas": [], "utc_offset": "+08:00", "lat": 54.911443, "lng": 99.032071}, {"id": "4875", "parent_id": "1124", "name": "Новая Игирма", "areas": [], "utc_offset": "+08:00", "lat": 57.140895, "lng": 103.920984}, {"id": "4876", "parent_id": "1124", "name": "Новобирюсинский", "areas": [], "utc_offset": "+08:00", "lat": 56.960358, "lng": 97.702908}, {"id": "4877", "parent_id": "1124", "name": "Новонукутский", "areas": [], "utc_offset": "+08:00", "lat": 53.700175, "lng": 102.708555}, {"id": "4878", "parent_id": "1124", "name": "Оек", "areas": [], "utc_offset": "+08:00", "lat": 52.590409, "lng": 104.458643}, {"id": "4879", "parent_id": "1124", "name": "Октябрьский (Иркутская область)", "areas": [], "utc_offset": "+08:00", "lat": 56.076368, "lng": 99.423919}, {"id": "7394", "parent_id": "1124", "name": "Олонки", "areas": [], "utc_offset": "+08:00", "lat": 52.901203, "lng": 103.703906}, {"id": "11189", "parent_id": "1124", "name": "Ольхон", "areas": [], "utc_offset": "+08:00", "lat": 53.15, "lng": 107.4}, {"id": "4880", "parent_id": "1124", "name": "Оса (Иркутская область)", "areas": [], "utc_offset": "+08:00", "lat": 53.388092, "lng": 103.872457}, {"id": "7321", "parent_id": "1124", "name": "Покосное", "areas": [], "utc_offset": "+08:00", "lat": 55.522052, "lng": 101.050121}, {"id": "7378", "parent_id": "1124", "name": "Речушка", "areas": [], "utc_offset": "+08:00", "lat": 56.532579, "lng": 102.866119}, {"id": "4881", "parent_id": "1124", "name": "Рудногорск", "areas": [], "utc_offset": "+08:00", "lat": 57.268811, "lng": 103.755927}, {"id": "1136", "parent_id": "1124", "name": "Саянск", "areas": [], "utc_offset": "+08:00", "lat": 54.1088, "lng": 102.1648}, {"id": "1137", "parent_id": "1124", "name": "Свирск", "areas": [], "utc_offset": "+08:00", "lat": 53.082243, "lng": 103.342957}, {"id": "7292", "parent_id": "1124", "name": "Седаново", "areas": [], "utc_offset": "+08:00", "lat": 56.980223, "lng": 101.314513}, {"id": "1138", "parent_id": "1124", "name": "Слюдянка", "areas": [], "utc_offset": "+08:00", "lat": 51.661768, "lng": 103.711567}, {"id": "6519", "parent_id": "1124", "name": "Смоленщина", "areas": [], "utc_offset": "+08:00", "lat": 52.249167, "lng": 104.128056}, {"id": "4882", "parent_id": "1124", "name": "Средний", "areas": [], "utc_offset": "+08:00", "lat": 52.896781, "lng": 103.512942}, {"id": "4883", "parent_id": "1124", "name": "Тайтурка", "areas": [], "utc_offset": "+08:00", "lat": 52.867148, "lng": 103.456429}, {"id": "1139", "parent_id": "1124", "name": "Тайшет", "areas": [], "utc_offset": "+08:00", "lat": 55.927217, "lng": 98.007907}, {"id": "7413", "parent_id": "1124", "name": "Тангуй", "areas": [], "utc_offset": "+08:00", "lat": 55.381731, "lng": 101.03511}, {"id": "4884", "parent_id": "1124", "name": "Тельма", "areas": [], "utc_offset": "+08:00", "lat": 52.698173, "lng": 103.714398}, {"id": "7361", "parent_id": "1124", "name": "Тубинский", "areas": [], "utc_offset": "+08:00", "lat": 57.64347, "lng": 103.283198}, {"id": "1140", "parent_id": "1124", "name": "Тулун", "areas": [], "utc_offset": "+08:00", "lat": 54.55712, "lng": 100.578038}, {"id": "5895", "parent_id": "1124", "name": "Тулюшка", "areas": [], "utc_offset": "+08:00", "lat": 54.464481, "lng": 101.163919}, {"id": "4885", "parent_id": "1124", "name": "Тыреть 1-я", "areas": [], "utc_offset": "+08:00", "lat": 53.669086, "lng": 102.315946}, {"id": "7395", "parent_id": "1124", "name": "Ук", "areas": [], "utc_offset": "+08:00", "lat": 55.078148, "lng": 98.859705}, {"id": "4886", "parent_id": "1124", "name": "Улькан", "areas": [], "utc_offset": "+08:00", "lat": 55.905048, "lng": 107.799712}, {"id": "1141", "parent_id": "1124", "name": "Усолье-Сибирское", "areas": [], "utc_offset": "+08:00", "lat": 52.759337, "lng": 103.61772}, {"id": "1142", "parent_id": "1124", "name": "Усть-Илимск", "areas": [], "utc_offset": "+08:00", "lat": 57.943039, "lng": 102.741523}, {"id": "1143", "parent_id": "1124", "name": "Усть-Кут", "areas": [], "utc_offset": "+08:00", "lat": 56.792878, "lng": 105.775672}, {"id": "217", "parent_id": "1124", "name": "Усть-Ордынский", "areas": [], "utc_offset": "+08:00", "lat": 52.80117, "lng": 104.767147}, {"id": "4887", "parent_id": "1124", "name": "Усть-Уда", "areas": [], "utc_offset": "+08:00", "lat": 54.175303, "lng": 103.032819}, {"id": "7322", "parent_id": "1124", "name": "Уян", "areas": [], "utc_offset": "+08:00", "lat": 54.344706, "lng": 101.997565}, {"id": "7387", "parent_id": "1124", "name": "Харик", "areas": [], "utc_offset": "+08:00", "lat": 54.24041, "lng": 101.658595}, {"id": "4888", "parent_id": "1124", "name": "Хомутово (Иркутская область)", "areas": [], "utc_offset": "+08:00", "lat": 52.465291, "lng": 104.361976}, {"id": "4891", "parent_id": "1124", "name": "Черемушки", "areas": [], "utc_offset": "+08:00", "lat": 52.262874, "lng": 104.177228}, {"id": "1144", "parent_id": "1124", "name": "Черемхово", "areas": [], "utc_offset": "+08:00", "lat": 53.124298, "lng": 103.133952}, {"id": "4889", "parent_id": "1124", "name": "Чунский", "areas": [], "utc_offset": "+08:00", "lat": 56.091527, "lng": 99.650294}, {"id": "1145", "parent_id": "1124", "name": "Шелехов", "areas": [], "utc_offset": "+08:00", "lat": 52.20739, "lng": 104.097851}, {"id": "7414", "parent_id": "1124", "name": "Шелехово", "areas": [], "utc_offset": "+08:00", "lat": 55.720418, "lng": 97.699827}, {"id": "7350", "parent_id": "1124", "name": "Шиткино", "areas": [], "utc_offset": "+08:00", "lat": 56.373395, "lng": 98.351294}, {"id": "7404", "parent_id": "1124", "name": "Шумский", "areas": [], "utc_offset": "+08:00", "lat": 54.831727, "lng": 99.131957}, {"id": "7289", "parent_id": "1124", "name": "Эдучанка", "areas": [], "utc_offset": "+08:00", "lat": 57.364895, "lng": 102.149174}, {"id": "4890", "parent_id": "1124", "name": "Юрты", "areas": [], "utc_offset": "+08:00", "lat": 56.049189, "lng": 97.631232}, {"id": "7349", "parent_id": "1124", "name": "Янталь", "areas": [], "utc_offset": "+08:00", "lat": 56.845913, "lng": 105.24714}], "utc_offset": "+08:00", "lat": 52.2871, "lng": 104.2806}, {"id": "1146", "parent_id": "113", "name": "Красноярский край", "areas": [{"id": "7381", "parent_id": "1146", "name": "Абалаково", "areas": [], "utc_offset": "+07:00", "lat": 58.11135, "lng": 92.716585}, {"id": "4741", "parent_id": "1146", "name": "Абан", "areas": [], "utc_offset": "+07:00", "lat": 56.676844, "lng": 96.066205}, {"id": "4742", "parent_id": "1146", "name": "Агинское", "areas": [], "utc_offset": "+07:00", "lat": 55.25893, "lng": 94.903722}, {"id": "7369", "parent_id": "1146", "name": "Ангарский", "areas": [], "utc_offset": "+07:00", "lat": 58.438187, "lng": 97.144129}, {"id": "1147", "parent_id": "1146", "name": "Артемовск (Красноярский край)", "areas": [], "utc_offset": "+07:00", "lat": 54.325571, "lng": 93.371129}, {"id": "1148", "parent_id": "1146", "name": "Ачинск", "areas": [], "utc_offset": "+07:00", "lat": 56.24097, "lng": 90.48447}, {"id": "4743", "parent_id": "1146", "name": "Байкит", "areas": [], "utc_offset": "+07:00", "lat": 61.678423, "lng": 96.377965}, {"id": "3664", "parent_id": "1146", "name": "Балахта (Красноярский край)", "areas": [], "utc_offset": "+07:00", "lat": 55.386211, "lng": 91.627036}, {"id": "7410", "parent_id": "1146", "name": "Беллык", "areas": [], "utc_offset": "+07:00", "lat": 54.549167, "lng": 91.33229}, {"id": "17477", "parent_id": "1146", "name": "Береж", "areas": [], "utc_offset": "+07:00", "lat": 55.789396, "lng": 96.017759}, {"id": "4744", "parent_id": "1146", "name": "Березовка (Красноярский край)", "areas": [], "utc_offset": "+07:00", "lat": 56.616041, "lng": 95.632947}, {"id": "7425", "parent_id": "1146", "name": "Березовское", "areas": [], "utc_offset": "+07:00", "lat": 55.843742, "lng": 89.586091}, {"id": "1149", "parent_id": "1146", "name": "Боготол", "areas": [], "utc_offset": "+07:00", "lat": 56.2, "lng": 89.516667}, {"id": "2506", "parent_id": "1146", "name": "Богучаны", "areas": [], "utc_offset": "+07:00", "lat": 58.379925, "lng": 97.4452}, {"id": "7295", "parent_id": "1146", "name": "Большая Иня", "areas": [], "utc_offset": "+07:00", "lat": 53.769944, "lng": 92.115091}, {"id": "4745", "parent_id": "1146", "name": "Большая Ирба", "areas": [], "utc_offset": "+07:00", "lat": 54.081331, "lng": 92.93678}, {"id": "4597", "parent_id": "1146", "name": "Большая Мурта", "areas": [], "utc_offset": "+07:00", "lat": 56.904448, "lng": 93.15119}, {"id": "7376", "parent_id": "1146", "name": "Большая Уря", "areas": [], "utc_offset": "+07:00", "lat": 56.027092, "lng": 95.482848}, {"id": "4746", "parent_id": "1146", "name": "Большой Улуй", "areas": [], "utc_offset": "+07:00", "lat": 56.654862, "lng": 90.580175}, {"id": "11960", "parent_id": "1146", "name": "Бор (Красноярский край)", "areas": [], "utc_offset": "+07:00", "lat": 61.594506, "lng": 90.027909}, {"id": "1150", "parent_id": "1146", "name": "Бородино (Красноярский край)", "areas": [], "utc_offset": "+07:00", "lat": 55.9061, "lng": 94.9079}, {"id": "7429", "parent_id": "1146", "name": "Бражное", "areas": [], "utc_offset": "+07:00", "lat": 56.065464, "lng": 95.867614}, {"id": "6745", "parent_id": "1146", "name": "Брянка (Красноярский край)", "areas": [], "utc_offset": "+07:00", "lat": 59.111667, "lng": 93.468611}, {"id": "6008", "parent_id": "1146", "name": "Ванавара", "areas": [], "utc_offset": "+07:00", "lat": 60.340667, "lng": 102.288952}, {"id": "7405", "parent_id": "1146", "name": "Вангаш", "areas": [], "utc_offset": "+07:00", "lat": 59.973001, "lng": 93.61304}, {"id": "6676", "parent_id": "1146", "name": "Волочанка", "areas": [], "utc_offset": "+07:00", "lat": 1.426389, "lng": 94.541944}, {"id": "6770", "parent_id": "1146", "name": "Галанино", "areas": [], "utc_offset": "+07:00", "lat": 57.62, "lng": 93.273056}, {"id": "7457", "parent_id": "1146", "name": "Георгиевка", "areas": [], "utc_offset": "+07:00", "lat": 56.51454, "lng": 95.416274}, {"id": "7458", "parent_id": "1146", "name": "Детлово", "areas": [], "utc_offset": "+07:00", "lat": 54.0922, "lng": 92.444225},